% program   : RTKPOST ver.demo5 b34b
% inp file  : C:\Users\pc\Desktop\tiwcha\datta n tratmnt\GEOP125P+Q.22o
% inp file  : C:\Users\pc\Desktop\2005\Trim202205050000A.22n
% obs start : 2022/05/05 15:44:41.0 GPST (week2208 402281.0s)
% obs end   : 2022/05/05 16:14:41.0 GPST (week2208 404081.0s)
% pos mode  : PPP Kinematic
% solution  : Combined-Phase Reset
% elev mask : 20.0 deg
% dynamics  : on
% tidecorr  : off
% tropo opt : Saastamoinen
% ephemeris : Broadcast
% navi sys  : GPS GLONASS Galileo QZSS BDS
% antenna1  :                       ( 0.0000  0.0000  0.0000)
%
% (lat/lon/height=WGS84/ellipsoidal,Q=1:fix,2:float,3:sbas,4:dgps,5:single,6:ppp,ns=# of satellites)
%  GPST                  latitude(deg) longitude(deg)  height(m)   Q  ns   sdn(m)   sde(m)   sdu(m)  sdne(m)  sdeu(m)  sdun(m) age(s)  ratio
2022/05/05 15:44:41.000   35.154421847   -2.905566232    42.8904   6   6   5.0677   3.4173  10.3947   0.7511  -1.1972  -4.6325   0.00    0.0
2022/05/05 15:44:42.000   35.154412450   -2.905557752    38.2702   6   6   4.0208   2.7238   8.5421   0.5480  -0.9248  -3.7141   0.00    0.0
2022/05/05 15:44:43.000   35.154407898   -2.905539014    37.3151   6   5   3.9304   3.3133   8.5151  -0.5123  -1.1929  -3.5694   0.00    0.0
2022/05/05 15:44:44.000   35.154411520   -2.905537738    35.4160   6   4   3.8855   4.2642  10.0225  -0.7944   3.5818  -3.6262   0.00    0.0
2022/05/05 15:44:45.000   35.154411173   -2.905550418    31.3104   6   5   3.8329   2.9297   9.9431   0.3554   2.5951  -3.5488   0.00    0.0
2022/05/05 15:44:46.000   35.154405997   -2.905516219    32.5328   6   4   3.9753   4.3822  10.6133  -0.8096   3.8143  -3.9215   0.00    0.0
2022/05/05 15:44:48.000   35.154404372   -2.905500456    36.6408   6   4   4.1031   4.7722  11.2328  -1.0180   4.2205  -4.1610   0.00    0.0
2022/05/05 15:44:57.000   35.154415331   -2.905530213    31.2989   6   5   5.7497   2.5484   8.2018  -0.7593  -1.2839   0.5179   0.00    0.0
2022/05/05 15:44:58.000   35.154405983   -2.905529813    33.6457   6   5   3.6100   2.9957   7.1880  -0.5604  -1.1107  -2.7873   0.00    0.0
2022/05/05 15:44:59.000   35.154406101   -2.905546449    35.2564   6   6   3.5951   2.4224   7.2396   0.4098  -0.5226  -2.9147   0.00    0.0
2022/05/05 15:45:00.000   35.154413243   -2.905556174    37.0853   6   6   3.6039   2.4083   7.3674   0.4163  -0.3656  -2.9916   0.00    0.0
2022/05/05 15:45:01.000   35.154411627   -2.905553030    36.7906   6   6   3.5649   2.3758   7.3220   0.4709   0.3020  -3.0346   0.00    0.0
2022/05/05 15:45:02.000   35.154407158   -2.905552762    35.5205   6   6   3.5335   2.3569   7.2790   0.4712   0.4034  -3.0119   0.00    0.0
2022/05/05 15:45:03.000   35.154408565   -2.905551386    35.3279   6   6   3.5082   2.3504   7.2364   0.4716   0.5121  -2.9877   0.00    0.0
2022/05/05 15:45:04.000   35.154411603   -2.905545943    35.5208   6   6   3.4904   2.3557   7.2173   0.4636   0.7429  -2.9535   0.00    0.0
2022/05/05 15:45:05.000   35.154407316   -2.905547975    34.4613   6   5   3.4821   2.5825   7.6862   0.6153   1.9175  -2.8393   0.00    0.0
2022/05/05 15:45:06.000   35.154409275   -2.905536244    35.5579   6   6   3.4752   2.4211   7.2203   0.5390   1.1794  -2.8773   0.00    0.0
2022/05/05 15:45:07.000   35.154408201   -2.905533519    34.8554   6   6   3.4781   2.3610   7.1449   0.5108   0.8101  -2.9274   0.00    0.0
2022/05/05 15:45:08.000   35.154397642   -2.905542205    32.8065   6   5   3.5638   2.6313   7.9724   0.8609   1.8165  -3.0695   0.00    0.0
2022/05/05 15:45:09.000   35.154396064   -2.905554189    32.9796   6   5   3.5857   2.6585   8.1475   0.8333   1.8916  -3.0619   0.00    0.0
2022/05/05 15:45:10.000   35.154399879   -2.905557520    32.5579   6   5   3.5890   2.6640   8.2194   0.8090   1.9408  -3.0872   0.00    0.0
2022/05/05 15:45:11.000   35.154397397   -2.905555895    33.7595   6   5   3.6189   2.7472   8.3317   0.5694   2.1772  -3.1997   0.00    0.0
2022/05/05 15:45:12.000   35.154395028   -2.905541605    33.1307   6   5   3.5660   2.6525   8.1421   0.8487   1.9783  -3.1142   0.00    0.0
2022/05/05 15:45:13.000   35.154385795   -2.905532804    34.5300   6   5   3.5514   2.6504   8.0088   0.8381   1.9737  -3.0462   0.00    0.0
2022/05/05 15:45:14.000   35.154382328   -2.905529477    35.4172   6   5   3.5097   2.6625   7.7265  -0.0686   2.1333  -2.8639   0.00    0.0
2022/05/05 15:45:15.000   35.154379172   -2.905523247    34.8639   6   6   3.4642   2.3261   6.8192   0.3816  -0.4550  -2.7968   0.00    0.0
2022/05/05 15:45:16.000   35.154376794   -2.905522606    34.3270   6   5   3.4639   2.7898   6.7320  -0.3999  -0.9707  -2.7641   0.00    0.0
2022/05/05 15:45:17.000   35.154375776   -2.905524257    34.5315   6   6   3.4387   2.2990   6.6599   0.4463  -0.4518  -2.8182   0.00    0.0
2022/05/05 15:45:18.000   35.154376420   -2.905531283    34.3821   6   6   3.4366   2.2740   6.6529   0.4461  -0.4309  -2.8204   0.00    0.0
2022/05/05 15:45:19.000   35.154371981   -2.905530958    34.7069   6   6   3.4360   2.2754   6.6636   0.4516  -0.4456  -2.8237   0.00    0.0
2022/05/05 15:45:20.000   35.154373395   -2.905533178    34.9675   6   6   3.4391   2.2803   6.7193   0.4292  -0.2837  -2.8368   0.00    0.0
2022/05/05 15:45:21.000   35.154373498   -2.905533912    36.6386   6   6   3.4942   2.3992   6.9838  -0.4006   1.0776  -2.8804   0.00    0.0
2022/05/05 15:45:22.000   35.154368148   -2.905530124    35.7300   6   5   3.4844   2.6481   7.4890  -0.1021   2.1406  -2.8583   0.00    0.0
2022/05/05 15:45:23.000   35.154363069   -2.905515626    36.8092   6   6   3.4791   2.4688   7.0363  -0.2377   1.4512  -2.8773   0.00    0.0
2022/05/05 15:45:24.000   35.154354749   -2.905511124    36.0958   6   6   3.4486   2.2954   6.7072   0.3841  -0.2974  -2.7606   0.00    0.0
2022/05/05 15:45:25.000   35.154348628   -2.905509648    35.5499   6   6   3.4298   2.2757   6.6155   0.4633  -0.4050  -2.7967   0.00    0.0
2022/05/05 15:45:26.000   35.154338941   -2.905511412    35.8431   6   6   3.4333   2.2684   6.6188   0.4299  -0.4302  -2.8199   0.00    0.0
2022/05/05 15:45:27.000   35.154331791   -2.905505163    36.1471   6   6   3.4730   2.3315   6.7438  -0.3439   0.6979  -2.9096   0.00    0.0
2022/05/05 15:45:28.000   35.154331962   -2.905504146    36.4883   6   5   3.4387   2.5408   7.2658   0.6007   1.8112  -2.7304   0.00    0.0
2022/05/05 15:45:29.000   35.154332318   -2.905493485    36.5861   6   6   3.4790   2.3346   6.7756  -0.3669   0.7356  -2.9345   0.00    0.0
2022/05/05 15:45:30.000   35.154327345   -2.905488716    37.9145   6   6   3.5090   2.3519   6.7636  -0.5000   0.8256  -3.0003   0.00    0.0
2022/05/05 15:45:31.000   35.154328897   -2.905487406    36.9523   6   5   3.8564   2.8419   7.2798  -1.6662   2.2472  -3.6459   0.00    0.0
2022/05/05 15:45:32.000   35.154330590   -2.905493515    35.5991   6   6   3.4702   2.3024   6.8006   0.2153   0.3082  -2.8387   0.00    0.0
2022/05/05 15:45:33.000   35.154329867   -2.905500616    32.9972   6   5   3.4492   2.5674   7.5093   0.5800   1.9098  -2.6786   0.00    0.0
2022/05/05 15:45:34.000   35.154327746   -2.905507163    32.6211   6   5   3.4410   2.5959   7.6907   0.6342   2.1174  -2.7532   0.00    0.0
2022/05/05 15:45:35.000   35.154319950   -2.905505953    33.1463   6   5   3.5239   2.6334   7.9118   0.8480   1.9827  -2.9754   0.00    0.0
2022/05/05 15:45:36.000   35.154314338   -2.905493643    34.2254   6   5   3.4558   2.6034   7.7990   0.5746   2.1162  -2.7210   0.00    0.0
2022/05/05 15:45:37.000   35.154313313   -2.905480173    35.0555   6   5   3.4484   2.6020   7.7203   0.5736   2.1080  -2.6817   0.00    0.0
2022/05/05 15:45:38.000   35.154306724   -2.905477260    34.7099   6   5   3.4388   2.5751   7.5448   0.6174   2.0245  -2.7452   0.00    0.0
2022/05/05 15:45:39.000   35.154306158   -2.905474376    35.5127   6   6   3.4843   2.3882   6.9859  -0.3249   1.1151  -2.9541   0.00    0.0
2022/05/05 15:45:40.000   35.154303564   -2.905476628    36.7410   6   5   3.4834   2.6619   7.6682  -0.0408   2.2467  -2.8906   0.00    0.0
2022/05/05 15:45:41.000   35.154307137   -2.905478388    35.4664   6   5   3.4365   2.5997   7.6875   0.6055   2.1695  -2.7451   0.00    0.0
2022/05/05 15:45:42.000   35.154308284   -2.905485647    35.0248   6   5   3.4327   2.5954   7.6701   0.6238   2.1523  -2.7270   0.00    0.0
2022/05/05 15:45:43.000   35.154303877   -2.905484902    34.6856   6   5   3.4344   2.5729   7.5263   0.6318   2.0260  -2.7261   0.00    0.0
2022/05/05 15:45:44.000   35.154295572   -2.905477675    35.5836   6   6   3.4334   2.3223   6.8621   0.4884   0.7815  -2.8193   0.00    0.0
2022/05/05 15:45:45.000   35.154298666   -2.905477930    34.4094   6   6   3.4425   2.3240   6.8664   0.5228   0.6478  -2.8389   0.00    0.0
2022/05/05 15:45:46.000   35.154299991   -2.905489704    33.6478   6   5   3.5571   2.6210   7.8017   0.8365   1.7765  -2.9796   0.00    0.0
2022/05/05 15:45:47.000   35.154294771   -2.905488464    31.3653   6   5   3.6093   2.7763   8.2487   0.3677   2.4078  -3.2634   0.00    0.0
2022/05/05 15:45:48.000   35.154298385   -2.905505318    29.8794   6   4   3.9585   3.5920   9.6381  -2.1041   4.2954  -4.2792   0.00    0.0
2022/05/05 15:45:49.000   35.154288770   -2.905480329    31.8636   6   5   3.4809   2.6489   8.0847   0.3900   2.3979  -2.9654   0.00    0.0
2022/05/05 15:45:50.000   35.154288504   -2.905460929    32.4877   6   5   3.6081   2.7797   8.3332   0.3020   2.4604  -3.2896   0.00    0.0
2022/05/05 15:45:51.000   35.154287656   -2.905459210    31.9093   6   4   3.9553   3.5787   9.4181  -2.0919   4.2186  -4.2504   0.00    0.0
2022/05/05 15:45:52.000   35.154282506   -2.905465484    32.4373   6   5   3.4665   2.6415   7.9231   0.4192   2.3617  -2.8853   0.00    0.0
2022/05/05 15:45:53.000   35.154275428   -2.905475097    31.6568   6   5   3.4402   2.6025   7.7780   0.6129   2.1968  -2.7646   0.00    0.0
2022/05/05 15:45:54.000   35.154275850   -2.905471611    31.8180   6   5   3.4392   2.6030   7.7370   0.6158   2.1782  -2.7404   0.00    0.0
2022/05/05 15:45:55.000   35.154278560   -2.905465166    32.6235   6   5   3.4539   2.6096   7.7637   0.5645   2.1540  -2.6991   0.00    0.0
2022/05/05 15:45:56.000   35.154276248   -2.905458591    33.9628   6   5   3.4403   2.6035   7.7277   0.6118   2.1908  -2.7438   0.00    0.0
2022/05/05 15:45:57.000   35.154274347   -2.905454245    34.8048   6   5   3.4403   2.6043   7.7196   0.6112   2.1955  -2.7464   0.00    0.0
2022/05/05 15:45:58.000   35.154267061   -2.905452880    36.0933   6   5   3.4411   2.6054   7.7137   0.6089   2.1972  -2.7448   0.00    0.0
2022/05/05 15:45:59.000   35.154260615   -2.905447853    35.9925   6   5   3.4416   2.6065   7.7131   0.6078   2.1985  -2.7446   0.00    0.0
2022/05/05 15:46:00.000   35.154262706   -2.905449653    35.5168   6   5   3.4424   2.6079   7.7198   0.6040   2.2047  -2.7478   0.00    0.0
2022/05/05 15:46:01.000   35.154257601   -2.905455705    34.5194   6   5   3.4457   2.6154   7.7280   0.5758   2.2336  -2.7583   0.00    0.0
2022/05/05 15:46:02.000   35.154259294   -2.905460092    33.7485   6   5   3.4865   2.7055   7.7974  -0.1869   2.4276  -2.8736   0.00    0.0
2022/05/05 15:46:03.000   35.154258356   -2.905459430    33.5593   6   5   3.4478   2.5927   7.5283   0.5905   2.0909  -2.7305   0.00    0.0
2022/05/05 15:46:04.000   35.154258789   -2.905459834    33.5975   6   6   3.4602   2.3747   6.9652   0.4319   1.0128  -2.7594   0.00    0.0
2022/05/05 15:46:05.000   35.154251270   -2.905457672    33.9600   6   6   3.4534   2.3519   6.9468   0.4075   1.0534  -2.8451   0.00    0.0
2022/05/05 15:46:06.000   35.154244654   -2.905461168    34.5334   6   5   3.5066   2.7055   7.7615  -0.3786   2.4085  -2.9380   0.00    0.0
2022/05/05 15:46:07.000   35.154245998   -2.905456698    34.4465   6   5   3.5105   2.7397   7.9272  -0.4359   2.5416  -2.9638   0.00    0.0
2022/05/05 15:46:08.000   35.154249934   -2.905445084    33.2595   6   5   3.4674   2.6457   7.8906   0.4517   2.3561  -2.8484   0.00    0.0
2022/05/05 15:46:09.000   35.154247034   -2.905438334    32.6593   6   5   3.4877   2.6776   8.0195   0.2244   2.4799  -2.9330   0.00    0.0
2022/05/05 15:46:10.000   35.154243819   -2.905433580    32.8736   6   4   3.9676   3.5924   9.5491  -2.0973   4.2729  -4.2477   0.00    0.0
2022/05/05 15:46:11.000   35.154230613   -2.905429234    34.0913   6   5   3.6328   2.7432   8.2308   0.3067   2.3998  -3.3264   0.00    0.0
2022/05/05 15:46:12.000   35.154241900   -2.905441743    33.1952   6   5   3.9517   2.9938   8.0562  -1.8115   2.7982  -3.9245   0.00    0.0
2022/05/05 15:46:13.000   35.154239784   -2.905447948    32.8504   6   5   3.6652   2.8574   8.2178  -0.5304   2.5025  -3.2922   0.00    0.0
2022/05/05 15:46:14.000   35.154233547   -2.905444224    34.0377   6   5   3.4935   2.6888   7.9019   0.2772   2.4115  -2.8840   0.00    0.0
2022/05/05 15:46:15.000   35.154224478   -2.905443289    34.1599   6   5   3.5017   2.6726   7.9384   0.3152   2.3585  -2.8445   0.00    0.0
2022/05/05 15:46:16.000   35.154212160   -2.905436582    35.9237   6   5   3.6547   2.7995   8.1305  -0.2351   2.4107  -3.3376   0.00    0.0
2022/05/05 15:46:17.000   35.154215104   -2.905430184    35.1798   6   5   3.9961   2.9881   7.8008  -1.6471   2.3677  -3.9712   0.00    0.0
2022/05/05 15:46:18.000   35.154214173   -2.905423798    34.9820   6   5   3.5873   2.6684   7.8213   0.7430   2.0394  -3.1048   0.00    0.0
2022/05/05 15:46:19.000   35.154212067   -2.905418680    36.2991   6   5   3.4670   2.5919   7.4916   0.5975   2.0533  -2.7581   0.00    0.0
2022/05/05 15:46:20.000   35.154212464   -2.905426651    35.3324   6   6   3.4521   2.2970   6.7555   0.3504   0.6912  -2.8157   0.00    0.0
2022/05/05 15:46:21.000   35.154204225   -2.905427065    34.8967   6   5   3.4580   2.5616   7.2177   0.6188   1.8832  -2.6911   0.00    0.0
2022/05/05 15:46:22.000   35.154204491   -2.905420873    34.5675   6   6   3.4639   2.2978   6.6713   0.4365   0.4773  -2.8276   0.00    0.0
2022/05/05 15:46:23.000   35.154198777   -2.905417259    35.1967   6   6   3.5847   2.4049   6.9014   0.5123  -0.2005  -3.0951   0.00    0.0
2022/05/05 15:46:24.000   35.154203435   -2.905423392    35.7359   6   5   3.4703   2.5963   7.4743   0.5998   2.0689  -2.7302   0.00    0.0
2022/05/05 15:46:25.000   35.154203712   -2.905425504    33.4872   6   5   3.4821   2.6316   7.6529   0.5698   2.1827  -2.6706   0.00    0.0
2022/05/05 15:46:26.000   35.154205055   -2.905422450    32.4372   6   5   3.5903   2.7178   7.7777   0.6241   2.1090  -3.0418   0.00    0.0
2022/05/05 15:46:27.000   35.154198770   -2.905407298    31.4997   6   6   3.4864   2.3134   6.9011   0.3967   0.7496  -2.9013   0.00    0.0
2022/05/05 15:46:28.000   35.154186620   -2.905394461    33.1890   6   5   3.5951   2.7120   7.6857   0.6454   2.0631  -3.0279   0.00    0.0
2022/05/05 15:46:29.000   35.154190270   -2.905392068    33.8738   6   5   3.4899   2.6231   7.5235   0.5987   2.1419  -2.7521   0.00    0.0
2022/05/05 15:46:30.000   35.154189999   -2.905386433    34.0560   6   6   3.5983   2.5282   7.1668   0.5634   1.2663  -3.0592   0.00    0.0
2022/05/05 15:46:31.000   35.154198628   -2.905392588    33.3255   6   6   3.5283   2.3695   6.7504  -0.3327   0.8772  -2.9246   0.00    0.0
2022/05/05 15:46:32.000   35.154193953   -2.905392448    32.6950   6   6   3.5240   2.3942   6.8975  -0.3889   1.1793  -2.9113   0.00    0.0
2022/05/05 15:46:33.000   35.154197379   -2.905393464    33.0656   6   5   3.5278   2.6923   7.6538  -0.1244   2.3516  -2.8366   0.00    0.0
2022/05/05 15:46:34.000   35.154189284   -2.905388824    33.4307   6   5   3.5387   2.7227   7.7758   0.0476   2.4474  -2.8561   0.00    0.0
2022/05/05 15:46:35.000   35.154186931   -2.905382978    34.7517   6   5   3.6258   2.7279   7.7997   0.6015   2.1403  -3.0612   0.00    0.0
2022/05/05 15:46:36.000   35.154179937   -2.905385011    34.9472   6   6   3.5581   2.3942   7.0037  -0.3315   1.0981  -2.9714   0.00    0.0
2022/05/05 15:46:37.000   35.154170539   -2.905375337    35.0530   6   5   3.6360   2.7334   7.8493   0.6310   2.1659  -3.0349   0.00    0.0
2022/05/05 15:46:38.000   35.154170255   -2.905367895    34.5970   6   5   3.5631   2.7285   7.8855   0.1845   2.4874  -2.8237   0.00    0.0
2022/05/05 15:46:39.000   35.154176454   -2.905365601    32.7901   6   5   3.5764   2.7319   7.9761   0.1614   2.5230  -2.8294   0.00    0.0
2022/05/05 15:46:40.000   35.154169416   -2.905367011    33.5257   6   5   3.6765   2.7719   8.2072   0.6471   2.3694  -3.0484   0.00    0.0
2022/05/05 15:46:41.000   35.154161033   -2.905354268    32.7647   6   5   3.7407   2.7757   8.3088   0.7267   2.3769  -2.9743   0.00    0.0
2022/05/05 15:46:42.000   35.154146452   -2.905355693    30.5051   6   4   5.4741   2.8098   9.0218   1.5195   2.6821   2.2701   0.00    0.0
2022/05/05 15:46:43.000   35.154159232   -2.905342122    31.2799   6   5   3.8566   2.7599   8.3666   0.8993   2.3748  -2.6889   0.00    0.0
2022/05/05 15:46:44.000   35.154155765   -2.905341075    30.6605   6   4   5.5667   2.8074   8.9731   1.5746   2.6999   2.5708   0.00    0.0
2022/05/05 15:46:45.000   35.154173415   -2.905349575    31.9438   6   5   4.0717   2.6759   8.0895   0.9621   2.4504  -1.8899   0.00    0.0
2022/05/05 15:46:46.000   35.154165982   -2.905350737    33.4204   6   5   3.7567   2.6667   7.8296   0.9228   2.0327  -2.7591   0.00    0.0
2022/05/05 15:46:47.000   35.154163086   -2.905329374    35.6019   6   6   3.6026   2.3416   6.9436   0.3520   0.9071  -2.7710   0.00    0.0
2022/05/05 15:46:48.000   35.154168913   -2.905339904    35.3258   6   5   3.5580   2.6292   7.6302   0.6042   2.2027  -2.6372   0.00    0.0
2022/05/05 15:46:49.000   35.154166998   -2.905337539    35.3548   6   5   3.5726   2.7304   7.8907   0.2869   2.4889  -2.7906   0.00    0.0
2022/05/05 15:46:50.000   35.154153589   -2.905332928    35.2496   6   5   3.6593   2.7785   8.1417   0.6284   2.3696  -3.0810   0.00    0.0
2022/05/05 15:46:51.000   35.154149826   -2.905317901    34.2256   6   5   3.6658   2.7810   8.1821   0.6350   2.3546  -3.1352   0.00    0.0
2022/05/05 15:46:52.000   35.154147299   -2.905318985    33.1672   6   5   3.6516   2.7812   8.1329   0.6021   2.3725  -3.1082   0.00    0.0
2022/05/05 15:46:53.000   35.154147083   -2.905331084    32.5339   6   5   3.5628   2.7421   7.8856   0.1159   2.4943  -2.8841   0.00    0.0
2022/05/05 15:46:54.000   35.154147352   -2.905335817    32.4712   6   5   3.6330   2.7427   7.7579   0.6144   2.1624  -3.0349   0.00    0.0
2022/05/05 15:46:55.000   35.154150100   -2.905332113    33.3822   6   6   3.5589   2.3874   6.7920  -0.3004   0.9228  -2.9426   0.00    0.0
2022/05/05 15:46:56.000   35.154152156   -2.905338377    32.4580   6   6   3.6330   2.4292   6.8571   0.5087   0.1660  -3.1096   0.00    0.0
2022/05/05 15:46:57.000   35.154151350   -2.905334564    31.9727   6   6   3.5577   2.3950   6.8001  -0.3653   1.0243  -2.9562   0.00    0.0
2022/05/05 15:46:58.000   35.154141903   -2.905332564    31.8845   6   5   3.6341   2.7238   7.5312   0.5819   2.0228  -3.0559   0.00    0.0
2022/05/05 15:46:59.000   35.154134466   -2.905313650    33.5444   6   6   3.5610   2.3933   6.7960  -0.4433   1.0498  -2.9751   0.00    0.0
2022/05/05 15:47:00.000   35.154121591   -2.905315780    35.5798   6   6   3.5573   2.4034   6.8500  -0.5158   1.1370  -2.9790   0.00    0.0
2022/05/05 15:47:01.000   35.154114067   -2.905310842    36.3675   6   4   3.5412   2.7221   7.6567  -0.2823   2.3939  -2.8843   0.00    0.0
2022/05/05 15:47:02.000   35.154112696   -2.905296485    37.4835   6   4   3.5421   2.7514   7.8514  -0.3051   2.5807  -2.9199   0.00    0.0
2022/05/05 15:47:03.000   35.154115648   -2.905301846    35.8325   6   4   4.0692   3.6384   8.9699  -2.2207   4.1491  -4.2347   0.00    0.0
2022/05/05 15:47:04.000   35.154115143   -2.905311118    33.3612   6   5   4.0406   2.9402   7.4031  -1.8976   2.4999  -3.8661   0.00    0.0
2022/05/05 15:47:05.000   35.154114016   -2.905310822    33.6524   6   6   3.6417   2.4615   6.8286  -0.8721   1.2594  -3.1511   0.00    0.0
2022/05/05 15:47:06.000   35.154113650   -2.905328476    30.9515   6   5   3.5513   2.6688   7.3829   0.1375   2.1308  -2.9050   0.00    0.0
2022/05/05 15:47:07.000   35.154102203   -2.905323068    32.7048   6   6   3.6460   2.4248   6.9578   0.2867   0.5214  -3.1951   0.00    0.0
2022/05/05 15:47:08.000   35.154105279   -2.905329523    31.3101   6   5   3.5186   2.6433   7.5214   0.5031   2.1921  -2.8357   0.00    0.0
2022/05/05 15:47:09.000   35.154103139   -2.905311376    32.3899   6   5   3.5378   2.7075   7.5591   0.0280   2.3214  -2.8740   0.00    0.0
2022/05/05 15:47:10.000   35.154100605   -2.905310244    33.1810   6   6   3.4927   2.3297   6.8081   0.4001   0.8762  -2.8578   0.00    0.0
2022/05/05 15:47:11.000   35.154097945   -2.905305208    33.4596   6   5   3.4908   2.6176   7.4097   0.6429   2.0939  -2.7202   0.00    0.0
2022/05/05 15:47:12.000   35.154094462   -2.905300958    33.3392   6   5   3.4887   2.6145   7.3849   0.6628   2.0702  -2.7091   0.00    0.0
2022/05/05 15:47:13.000   35.154097533   -2.905302362    32.3058   6   6   3.4856   2.3219   6.7773   0.4852   0.7488  -2.8350   0.00    0.0
2022/05/05 15:47:14.000   35.154097661   -2.905311427    31.2703   6   5   3.4902   2.6088   7.4525   0.6848   2.0662  -2.7278   0.00    0.0
2022/05/05 15:47:15.000   35.154098210   -2.905315691    31.1545   6   5   3.4893   2.6406   7.6130   0.6874   2.2199  -2.7242   0.00    0.0
2022/05/05 15:47:16.000   35.154093059   -2.905312729    31.9846   6   5   3.4896   2.6440   7.6779   0.6877   2.2434  -2.7342   0.00    0.0
2022/05/05 15:47:17.000   35.154094691   -2.905307748    32.6192   6   5   3.4949   2.6446   7.7043   0.7070   2.2370  -2.7377   0.00    0.0
2022/05/05 15:47:18.000   35.154097369   -2.905308851    32.3030   6   5   3.5123   2.6456   7.7435   0.7064   2.2529  -2.7611   0.00    0.0
2022/05/05 15:47:19.000   35.154090445   -2.905306001    32.0538   6   5   3.5706   2.7850   7.9648   0.2188   2.4948  -2.8746   0.00    0.0
2022/05/05 15:47:20.000   35.154089189   -2.905301450    33.1616   6   4   3.5794   3.7996   8.2596   0.1888   3.2952  -2.6653   0.00    0.0
2022/05/05 15:47:21.000   35.154088931   -2.905296786    33.3645   6   4   5.8047   2.8028   9.4243   1.9628   3.0246   4.0356   0.00    0.0
2022/05/05 15:47:22.000   35.154091591   -2.905302137    34.2647   6   4   6.4950   2.7972   9.8989   2.2641   3.1772   5.0844   0.00    0.0
2022/05/05 15:47:23.000   35.154095976   -2.905315614    33.1929   6   4   6.3861   2.7413   9.6137   2.0674   2.8894   4.6927   0.00    0.0
2022/05/05 15:47:24.000   35.154113925   -2.905313947    36.0936   6   5   5.7318   2.4097   7.9080   0.7932  -1.3723  -1.2788   0.00    0.0
2022/05/05 15:47:26.000   35.154081269   -2.905322668    39.9477   6   4   9.4548   4.0077  12.9260   4.8441  -6.0281  -9.2965   0.00    0.0
2022/05/05 15:47:27.000   35.154078497   -2.905323507    37.1340   6   4   8.1392   3.5877  11.4970   3.9361  -5.0658  -7.7252   0.00    0.0
2022/05/05 15:47:28.000   35.154093517   -2.905307859    32.6611   6   6   3.9268   2.4762   7.6879   1.0249  -1.4897  -3.6801   0.00    0.0
2022/05/05 15:47:29.000   35.154102236   -2.905310494    31.2107   6   6   3.7818   2.4593   7.3711   0.8958  -1.1568  -3.4432   0.00    0.0
2022/05/05 15:47:30.000   35.154112893   -2.905305507    30.8008   6   6   3.8546   2.4755   7.4764   1.0626  -1.4183  -3.6818   0.00    0.0
2022/05/05 15:47:31.000   35.154110414   -2.905308677    33.1016   6   5   5.5449   3.4019  10.7225   3.2658  -4.5313  -6.6659   0.00    0.0
2022/05/05 15:47:32.000   35.154112571   -2.905307682    32.4530   6   5   5.7509   3.4575  11.2180   3.4698  -4.8328  -7.0334   0.00    0.0
2022/05/05 15:47:33.000   35.154126278   -2.905290638    28.8970   6   6   4.1665   2.5998   8.1937   1.7469  -2.3997  -4.3473   0.00    0.0
2022/05/05 15:47:34.000   35.154124861   -2.905298797    27.9655   6   6   3.8594   2.4207   7.5714   1.2676  -1.7354  -3.7411   0.00    0.0
2022/05/05 15:47:35.000   35.154125109   -2.905307283    27.3287   6   5   5.0919   3.1113   9.5951   2.8568  -3.8773  -5.8185   0.00    0.0
2022/05/05 15:47:36.000   35.154118800   -2.905305888    27.6375   6   6   3.8760   2.4144   7.1410   1.3164  -1.8452  -3.5430   0.00    0.0
2022/05/05 15:47:37.000   35.154109049   -2.905302861    29.2016   6   5   5.0974   2.3047   6.8452   0.5788  -1.3276  -2.0826   0.00    0.0
2022/05/05 15:47:38.000   35.154108855   -2.905304669    30.9921   6   5   5.3605   2.3204   6.9590   0.5861  -1.0370  -1.1751   0.00    0.0
2022/05/05 15:47:39.000   35.154085634   -2.905306935    33.3202   6   5   5.4277   2.3160   7.0057   0.2595  -1.0611   0.4777   0.00    0.0
2022/05/05 15:47:40.000   35.154068170   -2.905307787    34.4682   6   5   5.3409   2.2792   6.8364  -0.5199  -1.2860  -0.8997   0.00    0.0
2022/05/05 15:47:41.000   35.154061276   -2.905314802    34.0034   6   5   5.1889   2.3470   6.8646   0.5318  -1.5319  -1.8900   0.00    0.0
2022/05/05 15:47:42.000   35.154062418   -2.905326017    34.2217   6   5   3.5984   2.7138   6.5191   0.2363  -1.4678  -2.7356   0.00    0.0
2022/05/05 15:47:43.000   35.154067429   -2.905323630    33.4287   6   6   3.5127   2.2890   6.3720   0.6773  -1.0364  -2.8143   0.00    0.0
2022/05/05 15:47:44.000   35.154073653   -2.905323694    32.8541   6   5   3.5133   2.6555   6.3417   0.4589  -1.2022  -2.7889   0.00    0.0
2022/05/05 15:47:45.000   35.154069419   -2.905322225    33.5127   6   6   3.5020   2.2685   6.3218   0.6721  -0.9763  -2.7941   0.00    0.0
2022/05/05 15:47:46.000   35.154071815   -2.905330354    33.3013   6   6   3.5007   2.2513   6.3231   0.6755  -0.9624  -2.7901   0.00    0.0
2022/05/05 15:47:47.000   35.154068086   -2.905347090    32.5826   6   6   3.5158   2.2568   6.3622   0.6394  -1.0198  -2.7457   0.00    0.0
2022/05/05 15:47:48.000   35.154062699   -2.905346337    32.8140   6   6   3.5019   2.2509   6.3178   0.6793  -0.9657  -2.7878   0.00    0.0
2022/05/05 15:47:49.000   35.154059455   -2.905350700    34.8245   6   6   3.5026   2.2505   6.3099   0.6844  -0.9658  -2.7910   0.00    0.0
2022/05/05 15:47:50.000   35.154057478   -2.905354158    35.3846   6   6   3.5049   2.2510   6.3101   0.6895  -0.9744  -2.7921   0.00    0.0
2022/05/05 15:47:51.000   35.154058965   -2.905363689    35.9669   6   6   3.5080   2.2517   6.3213   0.6964  -0.9837  -2.7965   0.00    0.0
2022/05/05 15:47:52.000   35.154058167   -2.905360852    35.4162   6   6   3.5134   2.2524   6.3517   0.7043  -0.9946  -2.8109   0.00    0.0
2022/05/05 15:47:53.000   35.154059177   -2.905352694    33.8705   6   6   3.5297   2.2560   6.4148   0.7334  -1.0428  -2.8571   0.00    0.0
2022/05/05 15:47:54.000   35.154069358   -2.905350496    32.3901   6   6   3.6479   2.3158   6.6485   1.0079  -1.4091  -3.1212   0.00    0.0
2022/05/05 15:47:55.000   35.154066800   -2.905352121    33.3710   6   6   3.6656   2.3206   6.6883   1.0328  -1.4519  -3.1618   0.00    0.0
2022/05/05 15:47:56.000   35.154066632   -2.905358250    33.6106   6   6   3.5834   2.2721   6.5437   0.8321  -1.1939  -2.9823   0.00    0.0
2022/05/05 15:47:57.000   35.154065753   -2.905356837    33.2789   6   6   3.7182   2.3416   6.8515   1.1074  -1.5328  -3.2791   0.00    0.0
2022/05/05 15:47:58.000   35.154072101   -2.905354568    32.6481   6   6   3.8274   2.4015   7.3441   1.2426  -1.6196  -3.5742   0.00    0.0
2022/05/05 15:47:59.000   35.154060080   -2.905349146    33.7327   6   5   5.8016   3.3737  11.3142   3.4436  -4.7892  -7.0864   0.00    0.0
2022/05/05 15:48:00.000   35.154051212   -2.905356753    35.7061   6   5   7.0270   3.9339  14.0012   4.4591  -6.3043  -9.1062   0.00    0.0
2022/05/05 15:48:01.000   35.154031525   -2.905369598    40.3248   6   5   7.4774   4.1372  14.9031   4.8259  -6.8760  -9.8124   0.00    0.0
2022/05/05 15:48:02.000   35.154027343   -2.905384493    42.3005   6   5   7.1211   3.9817  14.0539   4.5511  -6.4600  -9.2091   0.00    0.0
2022/05/05 15:48:03.000   35.154044109   -2.905382817    39.2037   6   5   6.0262   3.4641  11.6182   3.6373  -5.1159  -7.3855   0.00    0.0
2022/05/05 15:48:04.000   35.154047186   -2.905384051    36.1025   6   6   3.9818   2.4183   7.4396   1.4020  -2.0093  -3.7274   0.00    0.0
2022/05/05 15:48:05.000   35.154043983   -2.905381156    35.2374   6   6   3.9211   2.3726   6.9997   1.2328  -1.7341  -3.3489   0.00    0.0
2022/05/05 15:48:06.000   35.154053693   -2.905380769    34.5387   6   5   4.9516   2.2947   6.7896   0.7084  -1.4194  -2.3152   0.00    0.0
2022/05/05 15:48:07.000   35.154043737   -2.905383630    34.0376   6   6   4.1582   2.2777   6.6599   0.7699  -1.2697  -2.6789   0.00    0.0
2022/05/05 15:48:08.000   35.154057797   -2.905390134    34.7539   6   5   4.9836   2.2770   6.7889   0.5126  -1.2739  -2.0271   0.00    0.0
2022/05/05 15:48:09.000   35.154069398   -2.905397760    34.4711   6   6   4.2405   2.3857   7.1060   1.1791  -1.5220  -3.1369   0.00    0.0
2022/05/05 15:48:10.000   35.154072663   -2.905403298    35.2052   6   5   5.1640   3.0281   9.0992   2.7468  -3.6172  -5.4142   0.00    0.0
2022/05/05 15:48:11.000   35.154076251   -2.905404396    34.0194   6   6   3.8615   2.2986   6.8503   0.9128  -1.4560  -2.9959   0.00    0.0
2022/05/05 15:48:12.000   35.154070267   -2.905405765    33.3026   6   6   3.9016   2.3357   6.8524   1.0884  -1.5674  -3.1481   0.00    0.0
2022/05/05 15:48:13.000   35.154061589   -2.905418643    34.4858   6   6   3.9618   2.3474   6.9287   1.1359  -1.6229  -3.2204   0.00    0.0
2022/05/05 15:48:14.000   35.154059827   -2.905421389    33.5435   6   6   4.1125   2.4029   7.2440   1.2695  -1.6791  -3.3871   0.00    0.0
2022/05/05 15:48:15.000   35.154083344   -2.905419474    31.4122   6   4   6.9575   3.1133   9.6257   3.2196  -4.0004  -6.0502   0.00    0.0
2022/05/05 15:48:16.000   35.154078913   -2.905417526    29.4614   6   5   5.7942   2.4909   7.8004   0.9370  -2.0923  -3.3718   0.00    0.0
2022/05/05 15:48:17.000   35.154067559   -2.905424309    30.9300   6   5   6.3645   3.4541  10.7176   3.4752  -4.6949  -6.8783   0.00    0.0
2022/05/05 15:48:18.000   35.154053769   -2.905443670    33.2986   6   5   6.0705   3.5216  10.9101   3.4988  -4.7520  -6.9030   0.00    0.0
2022/05/05 15:48:19.000   35.154062694   -2.905445690    32.0682   6   6   4.2007   2.5091   7.5782   1.2785  -1.8285  -3.7564   0.00    0.0
2022/05/05 15:48:20.000   35.154071748   -2.905448493    30.5693   6   5   3.9537   2.7579   8.0173   1.0083   2.0091  -3.0244   0.00    0.0
2022/05/05 15:48:21.000   35.154078208   -2.905435975    30.3007   6   5   4.0361   2.7810   8.0886   1.2139   1.7371  -3.1715   0.00    0.0
2022/05/05 15:48:22.000   35.154086303   -2.905421955    31.9319   6   5   5.2331   2.3626   7.2380   1.0626  -1.6541  -2.5138   0.00    0.0
2022/05/05 15:48:23.000   35.154079953   -2.905428420    33.8284   6   5   5.4355   2.3535   7.1280   1.0038  -1.7249  -2.3213   0.00    0.0
2022/05/05 15:48:24.000   35.154071653   -2.905430957    34.0485   6   5   5.4442   2.3489   7.1218   0.9684  -1.6921  -2.1974   0.00    0.0
2022/05/05 15:48:25.000   35.154073781   -2.905432115    32.3148   6   5   5.3772   2.3051   7.1195   0.6955  -1.3494  -1.5634   0.00    0.0
2022/05/05 15:48:26.000   35.154069061   -2.905442216    28.2718   6   4   6.0734   2.8286   8.8267   1.9559   2.3169   2.7556   0.00    0.0
2022/05/05 15:48:27.000   35.154111368   -2.905438438    30.3617   6   5   4.3101   2.7836   8.2598   1.2047   2.1889  -2.4460   0.00    0.0
2022/05/05 15:48:28.000   35.154124459   -2.905436645    30.8983   6   6   4.0858   2.5023   7.7680   1.1069  -1.4235  -3.5920   0.00    0.0
2022/05/05 15:48:29.000   35.154111510   -2.905452672    35.4741   6   5   6.1467   3.5680  11.8048   3.6183  -5.0459  -7.3858   0.00    0.0
2022/05/05 15:48:30.000   35.154098764   -2.905465587    39.0325   6   4   7.6961   4.0502  14.5296   4.7210  -6.5703  -9.4606   0.00    0.0
2022/05/05 15:48:31.000   35.154082399   -2.905470810    41.0767   6   5   8.0221   4.3387  16.0379   5.1956  -7.4057 -10.6077   0.00    0.0
2022/05/05 15:48:32.000   35.154087136   -2.905462159    40.9469   6   5   8.1834   4.5203  16.6374   5.3245  -7.6239 -10.9551   0.00    0.0
2022/05/05 15:48:33.000   35.154098867   -2.905457390    41.2101   6   5   7.8077   4.3472  15.7644   5.0213  -7.1606 -10.3142   0.00    0.0
2022/05/05 15:48:34.000   35.154100188   -2.905467877    42.5975   6   5   6.7497   3.8754  13.7294   4.1876  -5.9953  -8.7289   0.00    0.0
2022/05/05 15:48:35.000   35.154109238   -2.905476120    42.2814   6   5   4.7019   2.7504   9.7755   1.9632  -3.1824  -4.8900   0.00    0.0
2022/05/05 15:48:36.000   35.154088638   -2.905499728    46.0136   6   4   6.9540   3.8555  13.2497   4.2102  -5.9042  -8.3860   0.00    0.0
2022/05/05 15:48:37.000   35.154078717   -2.905506721    46.1601   6   5   7.3588   4.2077  14.5374   4.7487  -6.7551  -9.5367   0.00    0.0
2022/05/05 15:48:38.000   35.154102567   -2.905499203    40.6924   6   4   7.4924   4.1320  14.0040   4.6854  -6.4840  -9.1732   0.00    0.0
2022/05/05 15:48:39.000   35.154117416   -2.905482418    34.0544   6   5   5.9347   3.5422  11.6302   3.5392  -4.9702  -7.2556   0.00    0.0
2022/05/05 15:48:40.000   35.154134842   -2.905483673    28.7153   6   6   3.8979   2.4470   7.5885   1.0742  -1.7346  -3.5895   0.00    0.0
2022/05/05 15:48:41.000   35.154149817   -2.905488524    29.1557   6   5   3.9015   2.4397   7.5624   0.7954  -1.7139  -2.9900   0.00    0.0
2022/05/05 15:48:42.000   35.154149424   -2.905487235    24.7665   6   6   3.8059   2.4101   7.1296   0.8853  -1.4612  -3.2442   0.00    0.0
2022/05/05 15:48:43.000   35.154145675   -2.905482699    25.8860   6   6   3.8487   2.4187   7.1917   1.0283  -1.5780  -3.4885   0.00    0.0
2022/05/05 15:48:44.000   35.154150723   -2.905492173    26.9227   6   5   5.1696   3.0913   9.6576   2.8920  -3.9774  -5.8725   0.00    0.0
2022/05/05 15:48:45.000   35.154154011   -2.905504782    28.9388   6   6   3.9735   2.4720   7.8343   1.1225  -1.6193  -3.7654   0.00    0.0
2022/05/05 15:48:46.000   35.154154669   -2.905511529    29.3887   6   5   6.5107   3.6995  12.4822   3.7965  -5.2975  -7.8383   0.00    0.0
2022/05/05 15:48:48.000   35.154131832   -2.905533480    37.1151   6   5   8.3071   4.4803  17.2239   5.3898  -7.7569 -11.2498   0.00    0.0
2022/05/05 15:48:49.000   35.154117999   -2.905554707    41.1093   6   5   8.6137   4.5832  17.9445   5.6222  -8.1218 -11.7756   0.00    0.0
2022/05/05 15:48:50.000   35.154112541   -2.905554684    41.8546   6   5   8.6920   4.7292  18.0530   5.6987  -8.2391 -11.8583   0.00    0.0
2022/05/05 15:48:51.000   35.154124805   -2.905555372    41.4066   6   4   8.8031   4.5703  17.3615   5.6228  -8.0073 -11.4486   0.00    0.0
2022/05/05 15:48:52.000   35.154139119   -2.905550868    37.4666   6   4   8.4730   4.5551  16.3602   5.4366  -7.6373 -10.8231   0.00    0.0
2022/05/05 15:48:53.000   35.154134379   -2.905554559    35.0180   6   5   7.3810   4.2039  14.5666   4.7619  -6.7621  -9.5988   0.00    0.0
2022/05/05 15:48:54.000   35.154137926   -2.905546339    32.4549   6   5   6.1248   3.6032  11.8374   3.6688  -5.1745  -7.5772   0.00    0.0
2022/05/05 15:48:55.000   35.154143154   -2.905538224    31.5586   6   4   4.3482   3.4345   8.0019  -1.5243   1.4539  -4.3697   0.00    0.0
2022/05/05 15:48:56.000   35.154146136   -2.905545098    31.6085   6   5   5.0602   3.0570   9.2457   2.7855  -3.7792  -5.6506   0.00    0.0
2022/05/05 15:48:57.000   35.154140981   -2.905561447    32.3229   6   6   3.6277   2.2823   6.6428   0.9134  -1.2711  -3.0349   0.00    0.0
2022/05/05 15:48:58.000   35.154144680   -2.905570382    32.3956   6   6   3.5927   2.3103   6.6209   0.8056  -0.9515  -2.8320   0.00    0.0
2022/05/05 15:48:59.000   35.154155899   -2.905580742    34.9264   6   6   3.6342   2.3002   6.5326   0.9613  -1.2829  -2.9837   0.00    0.0
2022/05/05 15:49:00.000   35.154151162   -2.905578521    35.0018   6   6   3.5561   2.2528   6.3742   0.7656  -1.0559  -2.8091   0.00    0.0
2022/05/05 15:49:01.000   35.154146590   -2.905575253    34.6390   6   6   3.6511   2.3014   6.5164   0.9378  -1.3390  -2.9204   0.00    0.0
2022/05/05 15:49:02.000   35.154154145   -2.905580399    34.9612   6   6   3.6438   2.2995   6.4661   0.9711  -1.3144  -2.9669   0.00    0.0
2022/05/05 15:49:03.000   35.154149169   -2.905591284    34.3262   6   6   3.6453   2.2982   6.4550   0.9684  -1.3070  -2.9634   0.00    0.0
2022/05/05 15:49:04.000   35.154149736   -2.905599761    34.2108   6   6   3.6489   2.2985   6.4610   0.9634  -1.2838  -2.9492   0.00    0.0
2022/05/05 15:49:05.000   35.154148644   -2.905609100    34.0845   6   6   3.6605   2.3374   6.5407   0.9826  -1.0816  -2.9138   0.00    0.0
2022/05/05 15:49:06.000   35.154148043   -2.905607191    33.0802   6   6   3.6779   2.3369   6.5420   0.9797  -1.0788  -2.8996   0.00    0.0
2022/05/05 15:49:07.000   35.154146826   -2.905613630    34.2404   6   6   3.6965   2.2984   6.4746   0.9522  -1.2601  -2.8994   0.00    0.0
2022/05/05 15:49:08.000   35.154149962   -2.905622191    34.4111   6   6   3.7596   2.3361   6.5561   0.9792  -1.0718  -2.8196   0.00    0.0
2022/05/05 15:49:09.000   35.154160954   -2.905622237    35.5278   6   5   4.9368   2.3373   6.6908   0.9388  -1.0564  -1.8644   0.00    0.0
2022/05/05 15:49:10.000   35.154167505   -2.905627292    35.3675   6   6   4.0731   2.3338   6.5382   0.9450  -0.9979  -2.5672   0.00    0.0
2022/05/05 15:49:11.000   35.154164911   -2.905627313    33.3616   6   6   3.6817   2.2869   6.3277   0.7272  -0.6255  -2.5411   0.00    0.0
2022/05/05 15:49:12.000   35.154165215   -2.905630976    32.5498   6   6   3.6235   2.2441   6.2361   0.6807  -0.9114  -2.5907   0.00    0.0
2022/05/05 15:49:13.000   35.154164232   -2.905629856    31.2572   6   6   3.5839   2.2506   6.2900   0.6815  -0.7736  -2.6024   0.00    0.0
2022/05/05 15:49:14.000   35.154167998   -2.905634998    31.8264   6   5   3.5873   2.5732   6.9431   0.9614   1.7551  -2.4229   0.00    0.0
2022/05/05 15:49:15.000   35.154172543   -2.905651002    33.0415   6   6   3.6437   2.2949   6.4131   0.9080  -1.0959  -2.8115   0.00    0.0
2022/05/05 15:49:16.000   35.154172294   -2.905657679    35.1193   6   6   3.5595   2.2406   6.2066   0.6781  -0.8892  -2.6348   0.00    0.0
2022/05/05 15:49:17.000   35.154177412   -2.905649453    35.5746   6   6   3.5478   2.2797   6.2354   0.7031  -0.5672  -2.5872   0.00    0.0
2022/05/05 15:49:18.000   35.154180964   -2.905654911    34.2769   6   6   3.5839   2.2393   6.1591   0.6599  -0.8498  -2.5573   0.00    0.0
2022/05/05 15:49:19.000   35.154186496   -2.905660978    34.6935   6   5   4.7065   2.2400   6.2667   0.2808  -0.9493  -1.6497   0.00    0.0
2022/05/05 15:49:20.000   35.154171351   -2.905663314    34.8978   6   6   3.6222   2.2367   6.1393   0.6502  -0.8662  -2.5376   0.00    0.0
2022/05/05 15:49:21.000   35.154174995   -2.905678312    34.7769   6   6   3.5988   2.2362   6.1280   0.6509  -0.8557  -2.5844   0.00    0.0
2022/05/05 15:49:22.000   35.154175628   -2.905685495    34.0162   6   6   3.6268   2.2362   6.1451   0.6441  -0.8615  -2.5479   0.00    0.0
2022/05/05 15:49:23.000   35.154182691   -2.905686228    34.1402   6   5   4.9392   2.2447   6.3867  -0.3091  -1.0333  -0.9684   0.00    0.0
2022/05/05 15:49:24.000   35.154179122   -2.905684067    33.3816   6   5   5.0963   2.2398   6.3722  -0.2474  -0.9796  -0.5727   0.00    0.0
2022/05/05 15:49:25.000   35.154179313   -2.905683539    33.0633   6   5   5.1091   2.2394   6.3726  -0.2381  -0.9724  -0.4628   0.00    0.0
2022/05/05 15:49:26.000   35.154183402   -2.905681123    34.5414   6   5   5.0912   2.2392   6.3569  -0.2278  -0.9671  -0.6555   0.00    0.0
2022/05/05 15:49:27.000   35.154184039   -2.905684934    34.8571   6   5   4.9097   2.2387   6.3144   0.0949  -0.9484  -1.1836   0.00    0.0
2022/05/05 15:49:28.000   35.154179247   -2.905688430    34.2200   6   6   3.7106   2.2355   6.1560   0.6275  -0.8547  -2.4227   0.00    0.0
2022/05/05 15:49:29.000   35.154186291   -2.905698520    34.3513   6   5   4.8013   2.2384   6.2646   0.2149  -0.9320  -1.4950   0.00    0.0
2022/05/05 15:49:30.000   35.154181072   -2.905706733    33.6701   6   6   4.0487   2.2361   6.1956   0.5441  -0.8783  -2.1760   0.00    0.0
2022/05/05 15:49:31.000   35.154199911   -2.905725565    33.3160   6   5   4.9715   2.2402   6.3471   0.0676  -0.9343  -0.9538   0.00    0.0
2022/05/05 15:49:32.000   35.154203772   -2.905730723    33.2403   6   5   5.0594   2.2823   6.5201   0.4174  -0.7117   0.6627   0.00    0.0
2022/05/05 15:49:33.000   35.154193078   -2.905730726    32.8210   6   6   3.9568   2.2376   6.1895   0.5688  -0.8505  -2.2704   0.00    0.0
2022/05/05 15:49:34.000   35.154185135   -2.905728552    32.3031   6   6   3.7044   2.2353   6.1371   0.6302  -0.8497  -2.4475   0.00    0.0
2022/05/05 15:49:35.000   35.154189493   -2.905730614    32.6687   6   5   4.7340   2.2382   6.2439   0.2776  -0.9236  -1.5525   0.00    0.0
2022/05/05 15:49:36.000   35.154188954   -2.905748777    33.4234   6   6   3.5993   2.2354   6.1220   0.6492  -0.8476  -2.5039   0.00    0.0
2022/05/05 15:49:37.000   35.154187863   -2.905756742    34.3377   6   6   3.5675   2.2399   6.1638   0.6196  -0.9115  -2.5061   0.00    0.0
2022/05/05 15:49:38.000   35.154190718   -2.905753797    34.8265   6   6   3.5575   2.2399   6.1597   0.6234  -0.9102  -2.5191   0.00    0.0
2022/05/05 15:49:39.000   35.154196319   -2.905754701    35.4469   6   6   3.5779   2.2355   6.1144   0.6567  -0.8454  -2.5283   0.00    0.0
2022/05/05 15:49:40.000   35.154197465   -2.905757271    36.1893   6   5   4.6819   2.2383   6.2363   0.3068  -0.9253  -1.6029   0.00    0.0
2022/05/05 15:49:41.000   35.154189713   -2.905756506    35.8470   6   6   3.5748   2.2399   6.1519   0.6262  -0.9062  -2.4927   0.00    0.0
2022/05/05 15:49:42.000   35.154186556   -2.905765503    35.1134   6   6   3.5224   2.2359   6.0991   0.6670  -0.8472  -2.5847   0.00    0.0
2022/05/05 15:49:43.000   35.154190751   -2.905769226    33.6607   6   6   3.5403   2.2400   6.1341   0.6365  -0.9027  -2.5436   0.00    0.0
2022/05/05 15:49:44.000   35.154206316   -2.905774252    34.0022   6   6   3.5224   2.2359   6.0840   0.6717  -0.8422  -2.5892   0.00    0.0
2022/05/05 15:49:45.000   35.154203600   -2.905775118    34.4090   6   6   3.5178   2.2359   6.0757   0.6750  -0.8369  -2.5944   0.00    0.0
2022/05/05 15:49:46.000   35.154202734   -2.905770730    34.1856   6   6   3.5173   2.2360   6.0732   0.6765  -0.8380  -2.5958   0.00    0.0
2022/05/05 15:49:47.000   35.154197447   -2.905774982    34.9721   6   6   3.5182   2.2362   6.0727   0.6783  -0.8398  -2.5962   0.00    0.0
2022/05/05 15:49:48.000   35.154190369   -2.905776131    35.1217   6   6   3.5198   2.2364   6.0730   0.6801  -0.8417  -2.5960   0.00    0.0
2022/05/05 15:49:49.000   35.154191006   -2.905786020    34.5202   6   6   3.5221   2.2367   6.0739   0.6819  -0.8439  -2.5955   0.00    0.0
2022/05/05 15:49:50.000   35.154188545   -2.905787274    33.3699   6   6   3.5253   2.2369   6.0754   0.6836  -0.8465  -2.5944   0.00    0.0
2022/05/05 15:49:51.000   35.154187962   -2.905795382    33.4980   6   6   3.5293   2.2372   6.0778   0.6852  -0.8494  -2.5913   0.00    0.0
2022/05/05 15:49:52.000   35.154191002   -2.905784104    33.9673   6   6   3.5357   2.2375   6.0807   0.6865  -0.8529  -2.5847   0.00    0.0
2022/05/05 15:49:53.000   35.154193026   -2.905782898    34.5536   6   6   3.5495   2.2379   6.0843   0.6869  -0.8569  -2.5752   0.00    0.0
2022/05/05 15:49:54.000   35.154185747   -2.905786885    34.0086   6   6   3.5714   2.2383   6.0893   0.6859  -0.8613  -2.5674   0.00    0.0
2022/05/05 15:49:55.000   35.154177211   -2.905797401    33.9234   6   6   3.5876   2.2388   6.0985   0.6858  -0.8654  -2.5600   0.00    0.0
2022/05/05 15:49:56.000   35.154178491   -2.905809190    33.7723   6   6   3.6283   2.2393   6.1178   0.6865  -0.8731  -2.5108   0.00    0.0
2022/05/05 15:49:57.000   35.154187931   -2.905821304    34.4402   6   5   4.8586   2.2424   6.2763   0.3594  -0.9617  -1.3377   0.00    0.0
2022/05/05 15:49:58.000   35.154193189   -2.905827675    34.6483   6   5   4.9392   2.2433   6.2979   0.3344  -0.9726  -1.1778   0.00    0.0
2022/05/05 15:49:59.000   35.154193782   -2.905829730    34.7275   6   6   3.9683   2.2419   6.1748   0.6346  -0.9096  -2.3047   0.00    0.0
2022/05/05 15:50:00.000   35.154194061   -2.905824566    34.8857   6   6   3.7305   2.2443   6.1766   0.7130  -0.9340  -2.5282   0.00    0.0
2022/05/05 15:50:01.000   35.154193338   -2.905827398    34.9751   6   6   3.8082   2.2988   6.3616   0.9844  -1.2810  -2.8101   0.00    0.0
2022/05/05 15:50:02.000   35.154186431   -2.905827961    34.2295   6   6   3.7913   2.3039   6.4049   1.0123  -1.3234  -2.8769   0.00    0.0
2022/05/05 15:50:03.000   35.154179347   -2.905833835    34.3953   6   6   3.7994   2.3057   6.4390   1.0234  -1.3360  -2.8770   0.00    0.0
2022/05/05 15:50:04.000   35.154187454   -2.905836992    34.5874   6   5   5.0446   2.3088   6.5904   0.9208  -1.3825  -2.0115   0.00    0.0
2022/05/05 15:50:05.000   35.154194302   -2.905846945    35.7427   6   5   5.2587   2.3116   6.6538   0.9181  -1.4078  -1.7784   0.00    0.0
2022/05/05 15:50:06.000   35.154177485   -2.905853726    36.4962   6   5   5.1273   2.3153   6.6737   0.9498  -1.4277  -1.9939   0.00    0.0
2022/05/05 15:50:07.000   35.154174784   -2.905857154    35.1996   6   6   3.9224   2.3194   6.5869   1.0813  -1.4216  -2.9485   0.00    0.0
2022/05/05 15:50:08.000   35.154176799   -2.905864058    35.8496   6   5   5.1442   2.3262   6.7653   1.0262  -1.4921  -2.2591   0.00    0.0
2022/05/05 15:50:09.000   35.154188738   -2.905862675    34.8415   6   5   5.4183   2.3488   6.9544   1.1583  -1.6579  -2.3183   0.00    0.0
2022/05/05 15:50:10.000   35.154189376   -2.905862497    34.5289   6   4   7.3231   3.1215   9.2516   3.3716  -3.8905  -5.9002   0.00    0.0
2022/05/05 15:50:11.000   35.154202102   -2.905859213    32.3640   6   5   5.8397   2.4696   7.5789   1.0074  -1.8928  -3.1015   0.00    0.0
2022/05/05 15:50:12.000   35.154175561   -2.905874365    36.2492   6   4   8.7966   3.6748  11.8070   4.3469  -5.2000  -8.1980   0.00    0.0
2022/05/05 15:50:13.000   35.154145708   -2.905889006    41.6571   6   4  11.0860   4.4883  15.3939   6.1835  -7.3969 -11.7130   0.00    0.0
2022/05/05 15:50:14.000   35.154135389   -2.905908508    45.3450   6   4  12.5429   5.0146  17.6764   7.1659  -8.6176 -13.7297   0.00    0.0
2022/05/05 15:50:16.000   35.154128357   -2.905921573    45.9928   6   4  10.7908   4.5106  15.4628   6.1231  -7.4519 -11.6477   0.00    0.0
2022/05/05 15:50:17.000   35.154158377   -2.905910109    39.6711   6   4   6.8983   3.5401  11.6602   3.9709  -5.2342  -7.7899   0.00    0.0
2022/05/05 15:50:18.000   35.154183638   -2.905908519    36.3912   6   5   4.1705   2.4818   7.2234   1.2902  -1.8260  -3.6341   0.00    0.0
2022/05/05 15:50:19.000   35.154180679   -2.905909593    36.8966   6   6   3.8214   2.2933   6.4707   0.9429  -1.2366  -2.8590   0.00    0.0
2022/05/05 15:50:20.000   35.154187696   -2.905915932    34.7920   6   6   3.7579   2.2760   6.4007   0.8864  -1.1734  -2.8267   0.00    0.0
2022/05/05 15:50:21.000   35.154188024   -2.905931713    34.9418   6   6   3.8546   2.3923   6.6059   0.9171  -1.2959  -3.1352   0.00    0.0
2022/05/05 15:50:22.000   35.154189022   -2.905938859    35.1842   6   6   3.8130   2.3938   6.5824   0.9028  -1.2630  -3.1393   0.00    0.0
2022/05/05 15:50:23.000   35.154188834   -2.905932626    34.6484   6   6   3.7651   2.3855   6.4939   0.8634  -1.1868  -3.0804   0.00    0.0
2022/05/05 15:50:24.000   35.154183497   -2.905930043    33.9268   6   6   3.6374   2.3254   6.2547   0.5091  -0.7249  -2.8222   0.00    0.0
2022/05/05 15:50:25.000   35.154185260   -2.905937478    34.7541   6   6   3.6143   2.3184   6.1983   0.4963  -0.6979  -2.7800   0.00    0.0
2022/05/05 15:50:26.000   35.154182166   -2.905946272    35.1931   6   6   3.6573   2.3045   6.3073   1.0050  -1.2670  -2.9158   0.00    0.0
2022/05/05 15:50:27.000   35.154186862   -2.905955211    35.0464   6   6   3.6543   2.3043   6.3092   1.0052  -1.2658  -2.9197   0.00    0.0
2022/05/05 15:50:28.000   35.154183068   -2.905954756    35.4319   6   6   3.6017   2.3147   6.1876   0.5326  -0.7344  -2.7830   0.00    0.0
2022/05/05 15:50:29.000   35.154181083   -2.905956498    36.6801   6   6   3.6346   2.2999   6.2657   0.9643  -1.1948  -2.8812   0.00    0.0
2022/05/05 15:50:30.000   35.154176223   -2.905959251    36.9676   6   6   3.5842   2.3125   6.1481   0.5052  -0.6761  -2.7479   0.00    0.0
2022/05/05 15:50:31.000   35.154175527   -2.905961281    36.3307   6   6   3.5287   2.2479   6.1078   0.7410  -0.8915  -2.6668   0.00    0.0
2022/05/05 15:50:32.000   35.154173404   -2.905962163    35.0623   6   6   3.6234   2.2982   6.2784   0.9901  -1.2224  -2.8787   0.00    0.0
2022/05/05 15:50:33.000   35.154181206   -2.905970269    33.9998   6   6   3.6301   2.3428   6.3773   1.0057  -1.0070  -2.8776   0.00    0.0
2022/05/05 15:50:34.000   35.154182730   -2.905967406    34.2299   6   6   3.5849   2.3651   6.2842   0.5193   0.4044  -2.7531   0.00    0.0
2022/05/05 15:50:35.000   35.154189647   -2.905968203    33.4888   6   6   3.5774   2.3674   6.2562   0.4667   0.5375  -2.7275   0.00    0.0
2022/05/05 15:50:36.000   35.154191138   -2.905971620    33.5644   6   6   3.5790   2.3656   6.2484   0.4771   0.4656  -2.7352   0.00    0.0
2022/05/05 15:50:37.000   35.154181574   -2.905973310    33.7707   6   6   3.6708   2.3717   6.3352   0.7689  -0.9759  -2.9603   0.00    0.0
2022/05/05 15:50:38.000   35.154173361   -2.905984726    34.0507   6   6   3.6832   2.4159   6.4276   0.8175  -0.7911  -2.9789   0.00    0.0
2022/05/05 15:50:39.000   35.154176404   -2.905986586    35.5343   6   6   3.6827   2.3730   6.3562   0.7947  -1.0373  -2.9965   0.00    0.0
2022/05/05 15:50:40.000   35.154183143   -2.905984661    37.2611   6   6   3.6759   2.3680   6.3272   0.8078  -1.0711  -2.9799   0.00    0.0
2022/05/05 15:50:41.000   35.154182188   -2.905983198    36.5996   6   6   3.6180   2.2973   6.2568   0.9778  -1.2105  -2.8817   0.00    0.0
2022/05/05 15:50:42.000   35.154187402   -2.905991154    36.5057   6   6   3.5253   2.2516   6.0969   0.7637  -0.9001  -2.6754   0.00    0.0
2022/05/05 15:50:43.000   35.154192121   -2.905994876    35.8983   6   6   3.5651   2.3120   6.1123   0.4927  -0.6262  -2.7255   0.00    0.0
2022/05/05 15:50:44.000   35.154187089   -2.906007400    35.7821   6   6   3.6115   2.2954   6.2337   0.9685  -1.1899  -2.8628   0.00    0.0
2022/05/05 15:50:45.000   35.154191757   -2.906015810    34.8473   6   6   3.6228   2.2992   6.2647   0.9889  -1.2252  -2.8942   0.00    0.0
2022/05/05 15:50:46.000   35.154188344   -2.906022132    34.4517   6   6   3.6647   2.3644   6.2970   0.7875  -1.0314  -2.9525   0.00    0.0
2022/05/05 15:50:47.000   35.154180621   -2.906020899    35.3996   6   6   3.5953   2.3238   6.1840   0.5163  -0.6859  -2.8063   0.00    0.0
2022/05/05 15:50:48.000   35.154176026   -2.906020613    35.8876   6   6   3.6606   2.3653   6.2732   0.7582  -0.9787  -2.9345   0.00    0.0
2022/05/05 15:50:49.000   35.154181117   -2.906032215    35.8082   6   6   3.6065   2.3328   6.1873   0.5744  -0.7439  -2.8221   0.00    0.0
2022/05/05 15:50:50.000   35.154187203   -2.906039629    36.1720   6   6   3.6640   2.3663   6.2782   0.7655  -0.9917  -2.9421   0.00    0.0
2022/05/05 15:50:51.000   35.154190255   -2.906040455    35.0684   6   6   3.6709   2.3669   6.2998   0.8046  -1.0502  -2.9623   0.00    0.0
2022/05/05 15:50:52.000   35.154199552   -2.906038961    34.0250   6   6   3.6245   2.2994   6.2730   0.9914  -1.2252  -2.8989   0.00    0.0
2022/05/05 15:50:53.000   35.154206430   -2.906038305    32.7510   6   6   3.6213   2.2971   6.2759   1.0001  -1.2405  -2.8877   0.00    0.0
2022/05/05 15:50:54.000   35.154206671   -2.906050871    32.3586   6   6   3.6380   2.3029   6.3229   0.9722  -1.2632  -2.8520   0.00    0.0
2022/05/05 15:50:55.000   35.154198838   -2.906057846    33.2783   6   6   3.6690   2.3644   6.3092   0.8208  -1.0752  -2.9543   0.00    0.0
2022/05/05 15:50:56.000   35.154194464   -2.906072970    34.1397   6   6   3.6300   2.3019   6.2779   0.9846  -1.2110  -2.9064   0.00    0.0
2022/05/05 15:50:57.000   35.154199537   -2.906073834    34.5647   6   6   3.6749   2.3674   6.3078   0.8099  -1.0540  -2.9678   0.00    0.0
2022/05/05 15:50:58.000   35.154194621   -2.906078396    35.1211   6   6   3.6798   2.3710   6.3123   0.7962  -1.0360  -2.9754   0.00    0.0
2022/05/05 15:50:59.000   35.154194204   -2.906086890    35.8603   6   6   3.6809   2.3712   6.3139   0.7984  -1.0375  -2.9772   0.00    0.0
2022/05/05 15:51:00.000   35.154192812   -2.906086405    36.1104   6   6   3.6819   2.3715   6.3180   0.7996  -1.0408  -2.9786   0.00    0.0
2022/05/05 15:51:01.000   35.154192466   -2.906085834    37.2860   6   6   3.6827   2.3733   6.3333   0.7990  -1.0203  -2.9794   0.00    0.0
2022/05/05 15:51:02.000   35.154201668   -2.906090150    35.8488   6   6   3.6845   2.4190   6.4199   0.8225  -0.7347  -2.9652   0.00    0.0
2022/05/05 15:51:03.000   35.154196000   -2.906089394    36.1497   6   6   3.6853   2.4192   6.4247   0.8239  -0.7382  -2.9664   0.00    0.0
2022/05/05 15:51:04.000   35.154198277   -2.906097474    35.7414   6   6   3.6814   2.3725   6.3538   0.8155  -1.0279  -2.9700   0.00    0.0
2022/05/05 15:51:05.000   35.154210797   -2.906109947    34.7564   6   6   3.6484   2.3494   6.4281   1.0067  -1.0561  -2.8389   0.00    0.0
2022/05/05 15:51:06.000   35.154208775   -2.906124269    34.8111   6   6   3.6332   2.3440   6.3766   1.0354  -1.0300  -2.8719   0.00    0.0
2022/05/05 15:51:07.000   35.154198576   -2.906130132    34.9634   6   6   3.6374   2.3038   6.3008   1.0055  -1.2233  -2.9005   0.00    0.0
2022/05/05 15:51:08.000   35.154194883   -2.906125215    34.3675   6   6   3.6979   2.3721   6.3737   0.8111  -1.1081  -2.9325   0.00    0.0
2022/05/05 15:51:09.000   35.154194024   -2.906125472    34.7751   6   6   3.6940   2.3738   6.3391   0.8143  -1.0630  -2.9769   0.00    0.0
2022/05/05 15:51:10.000   35.154204378   -2.906138093    35.3575   6   6   3.7064   2.3762   6.3904   0.8016  -1.1003  -2.9397   0.00    0.0
2022/05/05 15:51:11.000   35.154204843   -2.906146422    35.4090   6   6   3.7045   2.3737   6.3898   0.8190  -1.1239  -2.9347   0.00    0.0
2022/05/05 15:51:12.000   35.154209009   -2.906157666    35.1395   6   6   3.6525   2.3084   6.3191   1.0086  -1.2265  -2.9187   0.00    0.0
2022/05/05 15:51:13.000   35.154204363   -2.906155042    34.5871   6   6   3.7010   2.4199   6.4256   0.8610  -0.8050  -2.9685   0.00    0.0
2022/05/05 15:51:14.000   35.154205257   -2.906157072    34.5046   6   6   3.7088   2.4238   6.4305   0.8499  -0.7857  -2.9792   0.00    0.0
2022/05/05 15:51:15.000   35.154212450   -2.906170228    33.2058   6   6   3.7122   2.3786   6.3486   0.8331  -1.0659  -2.9986   0.00    0.0
2022/05/05 15:51:16.000   35.154209336   -2.906174867    32.1290   6   6   3.7168   2.3784   6.3359   0.8404  -1.0941  -3.0002   0.00    0.0
2022/05/05 15:51:17.000   35.154214581   -2.906181520    30.6456   6   6   3.7212   2.3800   6.3336   0.8456  -1.1012  -2.9995   0.00    0.0
2022/05/05 15:51:18.000   35.154220834   -2.906189380    30.0217   6   6   3.7195   2.3794   6.3344   0.8628  -1.1004  -2.9851   0.00    0.0
2022/05/05 15:51:19.000   35.154214013   -2.906203489    31.1788   6   6   3.6682   2.3535   6.3560   1.0375  -1.0018  -2.8691   0.00    0.0
2022/05/05 15:51:20.000   35.154209429   -2.906211300    32.2278   6   6   3.6491   2.3882   6.2902   0.6726  -0.2695  -2.7800   0.00    0.0
2022/05/05 15:51:21.000   35.154207291   -2.906222402    32.4841   6   6   3.6557   2.3883   6.3034   0.6379  -0.1169  -2.7847   0.00    0.0
2022/05/05 15:51:22.000   35.154217536   -2.906228702    32.5309   6   6   3.6631   2.3815   6.3155   0.6215  -0.2560  -2.7929   0.00    0.0
2022/05/05 15:51:23.000   35.154223423   -2.906232565    33.5191   6   6   3.6878   2.3389   6.2836   0.6104  -0.7960  -2.8439   0.00    0.0
2022/05/05 15:51:24.000   35.154219490   -2.906233919    34.3842   6   6   3.8003   2.4320   6.5023   0.9081  -0.9556  -3.0134   0.00    0.0
2022/05/05 15:51:25.000   35.154219767   -2.906235836    32.5171   6   6   3.7464   2.3411   6.3417   0.6792  -0.9298  -2.8735   0.00    0.0
2022/05/05 15:51:26.000   35.154216116   -2.906236428    31.7199   6   6   3.8753   2.3327   6.5218   1.1522  -1.4561  -3.0305   0.00    0.0
2022/05/05 15:51:27.000   35.154218014   -2.906230686    30.4127   6   5   4.9177   2.3003   6.5789   0.9876  -1.3910  -2.2374   0.00    0.0
2022/05/05 15:51:28.000   35.154200012   -2.906246425    31.2975   6   5   5.7419   3.0392   8.6968   2.9667  -3.6621  -5.4369   0.00    0.0
2022/05/05 15:51:29.000   35.154223491   -2.906256564    31.5039   6   5   5.4140   2.4139   6.9631   1.4449  -1.8262  -2.4440   0.00    0.0
2022/05/05 15:51:30.000   35.154212694   -2.906272368    32.2730   6   5   5.2474   2.3368   6.7147   1.0884  -0.9729  -0.9830   0.00    0.0
2022/05/05 15:51:31.000   35.154222492   -2.906276399    33.4340   6   5   5.2133   2.3202   6.6565   1.0089  -0.8644  -0.6292   0.00    0.0
2022/05/05 15:51:32.000   35.154221848   -2.906284771    34.1303   6   5   5.1219   2.2663   6.4682   0.7377  -1.1050  -1.0166   0.00    0.0
2022/05/05 15:51:33.000   35.154221351   -2.906287827    33.6480   6   5   5.0929   2.2591   6.4039   0.6642  -1.0744  -0.8990   0.00    0.0
2022/05/05 15:51:34.000   35.154224185   -2.906287507    34.0161   6   5   5.0791   2.2563   6.3615   0.6328  -1.0317  -0.7407   0.00    0.0
2022/05/05 15:51:35.000   35.154233962   -2.906293011    35.2715   6   5   5.0690   2.2541   6.3318   0.6138  -0.9996  -0.6074   0.00    0.0
2022/05/05 15:51:36.000   35.154229598   -2.906303909    36.3684   6   5   5.0589   2.2524   6.3135   0.6001  -0.9769  -0.4865   0.00    0.0
2022/05/05 15:51:37.000   35.154233982   -2.906307547    35.9640   6   5   5.0566   2.2511   6.3087   0.5834  -0.9657  -0.2276   0.00    0.0
2022/05/05 15:51:38.000   35.154240374   -2.906314863    34.7838   6   5   5.0938   2.2535   6.3659   0.4897  -1.0167   0.7875   0.00    0.0
2022/05/05 15:51:39.000   35.154234137   -2.906315322    34.1417   6   5   4.9263   2.2487   6.2497   0.5795  -0.9379  -0.8589   0.00    0.0
2022/05/05 15:51:40.000   35.154235195   -2.906317558    34.7213   6   6   3.9967   2.2500   6.1253   0.6884  -0.9286  -2.1323   0.00    0.0
2022/05/05 15:51:41.000   35.154237934   -2.906318880    33.2075   6   6   3.6981   2.2455   6.0164   0.7511  -0.8499  -2.4214   0.00    0.0
2022/05/05 15:51:42.000   35.154240794   -2.906324250    32.5034   6   6   3.6448   2.2447   5.9959   0.7553  -0.8363  -2.4480   0.00    0.0
2022/05/05 15:51:43.000   35.154239494   -2.906334592    32.6055   6   6   3.6060   2.2443   5.9853   0.7565  -0.8298  -2.4691   0.00    0.0
2022/05/05 15:51:44.000   35.154239093   -2.906346592    33.8952   6   6   3.5870   2.2438   5.9838   0.7557  -0.8253  -2.4841   0.00    0.0
2022/05/05 15:51:45.000   35.154237961   -2.906346125    33.4355   6   6   3.5808   2.2451   6.0004   0.7532  -0.8003  -2.4808   0.00    0.0
2022/05/05 15:51:46.000   35.154240833   -2.906354716    34.6992   6   6   3.5966   2.2932   6.1286   0.7695  -0.5076  -2.3918   0.00    0.0
2022/05/05 15:51:47.000   35.154234907   -2.906360688    34.9069   6   6   3.5927   2.2895   6.0735   0.7915  -0.3870  -2.4285   0.00    0.0
2022/05/05 15:51:48.000   35.154222948   -2.906365516    35.4875   6   6   3.6065   2.2438   5.9791   0.7452  -0.7771  -2.4538   0.00    0.0
