     3.03           OBSERVATION DATA    M: Mixed            RINEX VERSION / TYPE
Geo++ RINEX Logger  Geo++               20220505 154422 UTC PGM / RUN BY / DATE
************************************************************COMMENT
This file was generated by the Geo++ RINEX Logger App       COMMENT
for Android devices (Version 2.1.6). If you encounter       COMMENT
any issues, please send an email to android@geopp.de        COMMENT
Filtering Mode: MORE                                        COMMENT
************************************************************COMMENT
Geo++                                                       MARKER NAME
GEODETIC                                                    MARKER TYPE
Geo++               Geo++                                   OBSERVER / AGENCY
unknown             HUAWEI              ELE-L29             REC # / TYPE / VERS
unknown             ELE-L29                                 ANT # / TYPE
  5213914.0591  -264631.9929  3651921.4188                  APPROX POSITION XYZ
        0.0000        0.0000        0.0000                  ANTENNA: DELTA H/E/N
G    8 C1C L1C D1C S1C C5Q L5Q D5Q S5Q                      SYS / # / OBS TYPES
R    4 C1C L1C D1C S1C                                      SYS / # / OBS TYPES
E   12 C1B L1B D1B S1B C1C L1C D1C S1C C5Q L5Q D5Q S5Q      SYS / # / OBS TYPES
C    4 C2I L2I D2I S2I                                      SYS / # / OBS TYPES
J    8 C1C L1C D1C S1C C5Q L5Q D5Q S5Q                      SYS / # / OBS TYPES
  2022     5     5    15    44   40.9999990     GPS         TIME OF FIRST OBS
 24 R01  1 R02 -4 R03  5 R04  6 R05  1 R06 -4 R07  5 R08  6 GLONASS SLOT / FRQ #
    R09 -2 R10 -5 R11  0 R12 -1 R13 -2 R14 -7 R15  0 R16 -1 GLONASS SLOT / FRQ #
    R17  4 R18 -3 R19  3 R20  2 R21  4 R22 -3 R23  3 R24  2 GLONASS SLOT / FRQ #
G L1C                                                       SYS / PHASE SHIFT
G L5Q -0.25000                                              SYS / PHASE SHIFT
R L1C                                                       SYS / PHASE SHIFT
E L1B                                                       SYS / PHASE SHIFT
E L1C +0.50000                                              SYS / PHASE SHIFT
E L5Q -0.25000                                              SYS / PHASE SHIFT
C L2I                                                       SYS / PHASE SHIFT
J L1C                                                       SYS / PHASE SHIFT
J L5Q -0.25000                                              SYS / PHASE SHIFT
 C1C    0.000 C1P    0.000 C2C    0.000 C2P    0.000        GLONASS COD/PHS/BIS
                                                            END OF HEADER
> 2022  5  5 15 44 40.9999990  2  0
> 2022  5  5 15 44 40.9999990  0 15
C19  23276234.798   121205462.8441       2537.319          40.000  
C20  23133812.695   120463834.0421         -0.254          43.000  
C26  24768981.191   128978585.2011       -846.801          32.000  
C29  21928921.024   114189646.9941       -589.747          39.000  
C30  25076252.572   130578628.2781      -2303.005          42.000  
C32  26131115.805   136071577.3721      -2623.729          33.000  
C35  23099906.468   120287275.1771       1431.522          39.000  
G01  22630441.072   118923771.0761       2160.697          40.000  
G08  20664600.595   108593209.4271        869.254          37.000  
G10  22346181.161   117429975.4591      -2441.621          41.000  
G16  23065996.343   121212629.4091      -3672.150          40.000  
G21  21227603.036   111551807.0011        274.563          38.000  
G22  24624108.285   129400562.9871       2069.964          37.000  
G23  24738655.685   130002513.3971      -3633.874          33.000  
G27  20739557.703   108987111.7001      -1339.753          41.000  
> 2022  5  5 15 44 41.9999987  0 16
C19  23275659.496   121202458.218        2536.763          39.000  
C20  23133723.357   120463366.648          -0.405          39.000  
C26  24769054.041   128978962.854        -845.872          34.000  
C29  21928945.007   114189768.464        -590.379          39.000  
C30  25076602.429   130580463.572       -2303.367          37.000  
C32  26131531.617   136073733.042       -2624.320          36.000  
C35  23099541.620   120285374.742        1432.064          33.000  
G01  22629937.720   118921138.160        2159.671          40.000  
G08  20664346.670   108591867.768         868.882          37.000  
G10  22346555.601   117431944.891       -2441.525          43.000  
G16  23066604.022   121215829.485       -3672.776          39.000  
G21  21227462.434   111551060.338         273.906          37.000  
G22  24623625.619   129398020.557        2069.077          35.000  
G23  24739257.668   130005674.733       -3634.099          33.000  
G27  20739721.989   108987979.582       -1339.669          41.000  
G32  24127019.412   126788342.7651       1791.600          33.000  
> 2022  5  5 15 44 42.9999985  0 16
C19  23275111.476   121199607.291        2540.611          38.000  
C20  23133663.098   120463052.628           3.778          41.000  
C26  24769155.970   128979495.838        -844.159          30.000  
C29  21928998.071   114190044.050        -586.823          34.000  
C30  25076983.466   130582453.606       -2301.032          34.000  
C32  26131975.610   136076044.179       -2621.882          39.000  
C35  23099206.452   120283629.332        1433.228          24.000  
G01  22629469.744   118918662.118        2161.897          39.000    22629475.440    88802922.7411       1615.140          33.000  
G08  20664122.126   108590683.017         869.853          35.000    20664126.023    81090469.4631        649.469          28.000  
G10  22346959.122   117434069.437       -2437.515          42.000    22346963.319    87694284.4071      -1821.728          36.000  
G16  23067241.681   121219184.998       -3668.823          41.000  
G21  21227349.712   111550470.952         274.917          26.000  
G22  24623171.733   129395635.062        2072.112          32.000  
G23  24739888.432   130008992.797       -3631.529          34.000  
G27  20739915.056   108989001.877       -1335.652          38.000    20739921.951    81387908.7831       -998.564          36.000  
G32  24126618.590   126786235.426        1793.816          38.000    24126626.384    94678064.9581       1339.318          31.000  
> 2022  5  5 15 44 43.9999985  0 16
C19  23274625.512   121197066.990        2539.546          41.000  
C20  23133662.199   120463049.409           1.898          41.000  
C26  24769319.357   128980339.489        -842.457          27.000  
C29  21929109.593   114190630.180        -585.554          38.000  
C30  25077424.161   130584753.081       -2298.651          31.000  
C32  26132476.563   136078664.366       -2620.914          42.000  
C35  23098932.742   120282195.292        1434.458          28.000  
G01  22629059.628   118916499.906        2162.833          31.000    22629063.525    88801307.808        1614.263          27.000  
G08  20663956.940   108589811.962         871.895          36.000    20663960.538    81089818.575         652.285          33.000  
G10  22347423.201   117436506.863       -2438.471          40.000    22347427.398    87696105.262       -1820.075          39.000  
G16  23067941.097   121222854.105       -3668.546          40.000  
G21  21227296.948   111550194.743         276.933          29.000  
G22  24622777.806   129393561.511        2074.384          33.000  
G23  24740579.153   130012623.070       -3629.336          36.000  
G27  20740170.179   108990337.686       -1336.406          38.000    20740176.175    81388906.770        -997.638          36.000  
G32  24126278.025   126784440.597        1794.770          39.000    24126284.621    94676724.527        1341.400          37.000  
> 2022  5  5 15 44 44.9999982  0 16
C19  23274047.512   121194059.728        2538.292          39.000  
C20  23133571.062   120462580.618          -1.386          40.000  
C26  24769391.007   128980713.449        -843.296          28.000  
C29  21929131.778   114190747.518        -585.995          41.000  
C30  25077776.117   130586582.880       -2298.429          26.000  
C32  26132889.377   136080817.948       -2623.472          45.000  
C35  23098567.894   120280292.216        1434.842          32.000  
G01  22628558.975   118913864.400        2162.692          34.000    22628562.872    88799340.063        1614.645          29.000  
G08  20663703.616   108588467.481         870.479          39.000    20663704.215    81088813.620         650.848          33.000  
G10  22347797.642   117438474.052       -2441.000          42.000    22347801.239    87697573.090       -1821.540          39.000  
G16  23068549.376   121226050.980       -3671.169          35.000  
G21  21227153.947   111549444.692         276.873          35.000  
G22  24622293.941   129391014.346        2074.276          31.000  
G23  24741180.537   130015779.771       -3629.739          41.000  
G27  20740336.564   108991202.699       -1338.785          40.000    20740340.161    81389551.864        -998.509          36.000  
G32  24125842.727   126782174.104        1793.020          38.000    24125852.920    94675030.621        1340.117          39.000  
> 2022  5  5 15 44 45.9999982  0 15
C19  23273560.349   121191521.222        2538.674          43.000  
C20  23133572.561   120462581.232          -0.034          40.000  
C29  21929243.601   114191335.118        -588.314          37.000  
C30  25078218.011   130588882.219       -2300.000          37.000  
C32  26133394.228   136083441.953       -2623.881          43.000  
C35  23098292.385   120278856.772        1434.608          22.000  
G01  22628148.559   118911701.850        2161.782          34.000    22628151.257    88797726.254        1613.284          25.000  
G08  20663539.629   108587598.119         869.287          36.000    20663539.329    81088163.658         650.128          28.000  
G10  22348261.720   117440916.002       -2441.884          45.000    22348265.318    87699395.633       -1822.832          33.000  
G16  23069248.192   121229721.165       -3669.833          39.000  
G21  21227100.284   111549167.958         275.701          32.000  
G22  24621899.714   129388940.257        2073.824          31.000  
G23  24741871.259   130019410.652       -3632.460          41.000  
G27  20740591.387   108992542.033       -1338.872          42.000    20740595.584    81390551.408       -1000.016          37.000  
G32  24125500.663   126780381.146        1793.948          42.000    24125512.056    94673691.126        1338.324          36.000  
> 2022  5  5 15 44 46.9999982  0 16
C19  23273072.287   121188981.975        2538.231          44.000  
C20  23133571.362   120462580.772           0.237          41.000  
C26  24769719.280   128982400.9221       -845.539          28.000  
C29  21929356.323   114191923.076        -587.728          33.000  
C30  25078659.006   130591181.653       -2299.313          38.000  
C32  26133899.978   136086065.843       -2622.871          39.000  
C35  23098018.075   120277422.664        1433.095          25.000  
G01  22627736.344   118909541.029        2160.103          30.000    22627740.241    88796114.391        1612.809          30.000  
G08  20663373.844   108586728.916         869.074          33.000    20663373.844    81087513.834         649.588          28.000  
G10  22348726.099   117443356.998       -2439.945          42.000    22348730.296    87701218.712       -1824.286          32.000  
G16  23069946.109   121233390.620       -3670.356          44.000  
G21  21227048.420   111548892.936         274.597          28.000  
G22  24621505.786   129386865.805        2074.584          37.000  
G23  24742560.182   130023043.944       -3632.398          39.000  
G27  20740845.911   108993880.468       -1336.868          39.000    20740851.307    81391551.249        -999.530          36.000  
G32  24125159.500   126778586.538        1793.255          44.000    24125171.192    94672351.981        1339.623          33.000  
> 2022  5  5 15 44 47.9999980  0 16
C19  23272524.866   121186131.810        2537.639          39.000  
C20  23133510.504   120462268.980          -1.022          34.000  
C26  24769821.210   128982934.761        -847.529          23.000  
C29  21929409.686   114192198.816        -588.273          33.000  
C30  25079040.641   130593168.940       -2300.179          30.000  
C32  26134343.371   136088376.742       -2623.101          31.000  
C35  23097683.207   120275677.283        1433.138          25.000  
G01  22627265.370   118907065.437        2160.685          31.000    22627269.267    88794265.574        1613.661          24.000  
G08  20663148.100   108585543.894         870.115          35.000    20663148.700    81086628.604         648.476          31.000  
G10  22349131.718   117445483.004       -2442.359          40.000    22349135.316    87702807.270       -1823.596          33.000  
G16  23070587.365   121236747.254       -3672.825          43.000  
G21  21226937.197   111548303.018         274.694          32.000  
G22  24621050.401   129384476.785        2072.418          38.000  
G23  24743190.646   130026360.981       -3631.950          30.000  
G27  20741039.877   108994902.869       -1338.624          37.000    20741045.873    81392315.216       -1000.177          35.000  
G32  24124758.977   126776479.185        1792.247          40.000    24124770.369    94670777.699        1339.059          34.000  
> 2022  5  5 15 44 48.9999980  0 16
C19  23272038.603   121183594.514        2535.991          34.000  
C20  23133510.804   120462270.430          -2.292          41.000  
C26  24769986.995   128983782.515        -848.389          26.000  
C29  21929522.707   114192787.082        -588.644          38.000  
C30  25079482.835   130595470.035       -2301.775          34.000  
C32  26134845.523   136091000.436       -2623.978          30.000  
C35  23097408.597   120274244.822        1431.902          24.000  
G01  22626852.556   118904905.497        2159.616          25.000    22626858.552    88792650.689        1615.754          14.000  
G08                                                                  20662984.414    81085980.498         646.837          23.000  
G10  22349597.296   117447925.764       -2443.766          43.000    22349600.294    87704630.782       -1823.940          32.000  
G16  23071285.581   121240420.015       -3672.795          33.000  
G21  21226885.933   111548028.800         274.065          31.000  
G22  24620654.975   129382405.684        2070.032          38.000  
G23  24743878.369   130029992.299       -3632.287          29.000  
G27  20741293.801   108996242.363       -1340.561          38.000    20741300.397    81393315.760       -1000.413          33.000  
G32  24124418.113   126774686.461        1792.470          37.000    24124428.905    94669438.875        1338.558          27.000  
> 2022  5  5 15 44 49.9999977  0 14
C19  23271461.802   121180589.356        2537.031          29.000  
C20  23133421.765   120461804.383          -2.498          35.000  
C29  21929545.492   114192907.700        -589.082          32.000  
C30  25079835.991   130597303.151       -2301.533          28.000  
C32  26135258.037   136093155.611       -2623.682          26.000  
G01  22626351.603   118902274.004        2158.009          22.000    22626356.999    88790677.772        1621.892          14.000  
G08  20662727.192   108583332.9951        868.241          24.000    20662730.190    81084981.978         645.255          26.000  
G10  22349972.336   117449896.699       -2443.480          34.000    22349975.634    87706101.957       -1824.364          32.000  
G16  23071893.560   121243619.773       -3671.911          29.000  
G21  21226742.632   111547282.574         273.499          25.000  
G22  24620173.808   129379861.178        2073.350          28.000  
G23  24744478.554   130033151.158       -3631.431          22.000  
G27  20741457.788   108997109.578       -1340.022          33.000    20741464.983    81393963.548       -1000.932          30.000  
G32  24123987.011   126772421.488        1792.149          31.000    24123998.104    94667748.835        1337.616          26.000  
> 2022  5  5 15 44 50.9999977  0 19
C19  23270975.239   121178052.592        2536.211          39.000  
C20  23133422.665   120461807.272          -3.242          42.000  
C26  24770228.927   128985014.0351       -853.392          18.000  
C29  21929657.914   114193496.709        -589.162          37.000  
C30  25080277.585   130599604.558       -2301.399          36.000  
C32  26135761.988   136095779.711       -2625.304          30.000  
C35  23096763.743   120270910.6701       1433.550          16.000  
E05                                                                                                                                  27365607.484   107388522.3211       1814.547          29.000  
E25                                                                                                                                  27375912.850   107428963.0261      -2507.184          30.000  
G01  22625937.889   118900115.395        2158.580          22.000    22625944.784    88789057.612        1617.017          14.000  
G08  20662560.807   108582464.605         868.094          26.000    20662562.606    81084335.235         646.943          20.000  
G10  22350437.014   117452340.005       -2443.195          37.000    22350440.912    87707926.056       -1824.594          32.000  
G16  23072591.777   121247291.523       -3671.578          37.000  
G21  21226689.569   111547008.953         274.045          25.000  
G22  24619778.982   129377787.499        2073.572          31.000  
G23  24745169.576   130036783.740       -3632.982          22.000  
G27  20741711.412   108998449.998       -1340.852          39.000    20741720.106    81394965.061       -1002.828          30.000  
G32  24123645.548   126770629.316        1791.923          34.000    24123657.240    94666411.025        1337.603          33.000  
R07  23562096.800   126129749.4681       4096.860          33.000  
> 2022  5  5 15 44 51.9999974  0 17
C19  23270398.438   121175048.259        2535.533          34.000  
C20  23133333.626   120461342.860          -4.472          40.000  
C29  21929680.098   114193617.924        -589.915          35.000  
C30  25080630.741   130601437.970       -2302.163          30.000  
C32  26136176.302   136097937.321       -2626.736          33.000  
E05                                                                                                                                  27365054.667   107386355.574        1812.592          30.000  
E25                                                                                                                                  27376461.470   107431117.245       -2507.125          31.000  
G01  22625437.236   118897484.216        2159.151          22.000  
G08  20662305.084   108581125.027         865.695          30.000    20662307.782    81083335.700         647.588          19.000  
G10  22350811.455   117454311.039       -2444.367          38.000    22350816.552    87709398.782       -1826.849          26.000  
G16  23073199.756   121250491.089       -3672.640          36.000  
G21  21226549.865   111546262.620         272.965          20.000  
G22  24619295.117   129375241.543        2072.895          32.000  
G23  24745771.559   130039944.382       -3633.900          30.000  
G27  20741876.598   108999318.818       -1341.946          39.000    20741884.692    81395614.445       -1001.476          25.000  
G32  24123216.245   126768365.338        1790.552          41.000    24123226.138    94664720.710        1337.347          35.000  
R07  23561242.691   126125177.283        4096.471          36.000  
> 2022  5  5 15 44 52.9999972  0 19
C19  23269851.917   121172200.472        2536.102          37.000  
C20  23133276.066   120461033.752          -2.376          40.000  
C26  24770402.207   128985937.3191       -848.516          26.000  
C29  21929733.461   114193894.883        -588.836          33.000  
C30  25081014.475   130603427.123       -2300.298          30.000  
C32  26136621.493   136100251.285       -2625.851          30.000  
C35  23096066.426   120267262.4301       1434.786          26.000  
E05                                                                                                                                  27364533.328   107384307.399        1813.932          28.000  
E25                                                                                                                                  27377040.369   107433388.234       -2504.039          30.000  
G01  22624967.161   118895008.731        2161.639          28.000  
G08  20662080.539   108579943.282         868.362          24.000    20662083.237    81082453.047         647.888          19.000  
G10  22351213.777   117456438.772       -2442.116          34.000    22351221.571    87710989.082       -1823.592          27.000  
G16  23073838.014   121253848.336       -3671.829          36.000  
G21  21226439.242   111545674.161         275.092          28.000  
G22  24618840.931   129372854.162        2072.039          32.000  
G23  24746404.421   130043263.604       -3634.518          27.000  
G27  20742078.958   109000343.821       -1338.672          38.000    20742079.857    81396380.918       -1002.282          25.000  
G32  24122814.823   126766259.553        1791.239          42.000    24122825.615    94663148.226        1337.101          34.000  
R07  23560417.063   126120757.312        4098.002          35.000  
> 2022  5  5 15 44 53.9999972  0 16
C19  23269364.754   121169663.242        2538.190          37.000  
C20  23133276.966   120461036.789          -2.833          34.000  
C26  24770563.796   128986784.708        -846.516          34.000  
C29  21929848.882   114194482.507        -586.725          27.000  
C30  25081456.669   130605726.690       -2298.299          26.000  
C35  23095791.516   120265826.725        1436.099          32.000  
E05                                                                                                                                  27364070.448   107382492.387        1816.388          25.000  
G01  22624555.246   118892846.239        2162.848          35.000  
G08  20661915.653   108579074.243         869.569          30.000    20661917.452    81081804.469         647.903          25.000  
G10                                                                  22351686.549    87712819.082       -1820.935          11.000  
G16  23074535.931   121257519.245       -3670.309          36.000  
G21  21226387.078   111545398.499         275.970          30.000  
G22  24618445.505   129370781.511        2073.730          31.000  
G27  20742333.781   109001683.137       -1339.249          36.000    20742335.880    81397383.811       -1002.065          26.000  
G32  24122473.659   126764467.538        1792.564          37.000    24122483.552    94661810.497        1338.667          24.000  
R07  23559650.194   126116652.592        4099.451          36.000  
> 2022  5  5 15 44 54.9999969  0 16
C19  23268784.955   121166657.084        2535.978          36.000  
C20  23133186.728   120460570.764          -2.372          33.000  
C26  24770634.846   128987163.004        -847.119          35.000  
C29  21929871.366   114194599.863        -586.223          27.000  
C30  25081807.426   130607556.447       -2298.232          26.000  
C35  23095426.369   120263922.873        1434.694          32.000  
E05                                                                                                                                  27363517.031   107380323.445        1815.034          24.000  
G01  22624053.394   118890211.157        2161.691          37.000  
G08  20661659.930   108577731.669         870.248          34.000    20661660.830    81080802.824         650.598          24.000  
G10  22352050.797   117460849.1011      -2441.779          22.000    22352060.091                       -1820.585          18.000  
G16  23075143.011   121260716.685       -3670.147          36.000  
G21  21226242.878   111544649.766         275.508          35.000  
G22  24617962.539   129368233.409        2076.878          26.000  
G27  20742497.768   109002549.899       -1339.658          34.000    20742501.065    81398031.006        -998.230          27.000  
G32  24122042.557   126762201.963        1793.040          33.000    24122051.851    94660120.315        1337.397          24.000  
R07  23558795.485   126112077.406        4099.073          34.000  
> 2022  5  5 15 44 55.9999967  0 18
C19  23268239.933   121163808.656        2535.981          26.000  
C20  23133126.470   120460261.674          -3.680          36.000  
C26  24770735.876   128987699.353        -849.715          27.000  
C29  21929924.129   114194874.287        -587.316          32.000  
C30  25082188.162   130609542.548       -2299.089          26.000  
C32  26137984.350   136107343.7551      -2623.182          19.000  
C35  23095092.100   120262176.745        1433.211          25.000  
E05                                                                                                                                  27362993.894   107378273.280        1815.034          27.000  
G01  22623582.120   118887735.253        2160.160          32.000  
G08                                                                  20661434.487    81079918.268         648.950          30.000  
G10  22352455.517   117462977.469       -2444.138          30.000    22352463.911                       -1824.132          27.000  
G16  23075783.068   121264072.067       -3671.161          29.000  
G21  21226130.755   111544059.572         274.471          31.000  
G22  24617507.154   129365841.842        2075.773          26.000  
G23  24748329.688   130053372.3001      -3632.506          13.000  
G27  20742691.733   109003575.337       -1341.334          36.000    20742695.631    81398795.057       -1000.581          31.000  
G32                                                                  24121650.729    94658546.763        1338.015          31.000  
R07  23557971.955   126107669.039        4098.680          29.000  
> 2022  5  5 15 44 56.9999967  0 18
C19  23267753.070   121161273.008        2535.084          38.000  
C20  23133126.470   120460266.213          -5.556          42.000  
C26  24770899.263   128988549.883        -851.115          39.000  
C29  21930037.151   114195462.321        -589.064          42.000  
C30  25082630.356   130611843.300       -2301.575          30.000  
C32  26138487.702   136109968.283       -2625.500          35.000  
C35  23094817.191   120260743.924        1432.371          35.000  
E05                                                                                                                                  27362532.513   107376458.601        1814.940          26.000  
G01  22623172.004   118885576.029        2158.494          37.000  
G08  20661267.502   108575678.5661        867.081          39.000    20661269.301    81079269.964         646.138          36.000  
G10  22352921.694   117465422.613       -2446.291          41.000    22352928.590    87717694.2961      -1826.250          38.000  
G16  23076480.985   121267743.737       -3672.690          34.000  
G21  21226077.992   111543785.583         273.270          37.000  
G22  24617111.428   129363767.489        2073.367          30.000  
G23  24749020.410   130057005.243       -3633.368          33.000  
G27  20742945.658   109004917.319       -1343.161          43.000    20742951.653    81399796.798       -1002.925          40.000  
G32  24121304.169   126758301.9401       1791.810          27.000    24121309.865    94657209.366        1337.518          30.000  
R07  23557206.285   126103570.577        4097.716          35.000  
> 2022  5  5 15 44 57.9999964  0 18
C19  23267176.569   121158269.937        2534.146          42.000  
C20  23133037.431   120459804.407          -7.190          42.000  
C26  24770973.012   128988933.419        -852.260          40.000  
C29  21930060.535   114195583.583        -590.296          41.000  
C30  25082983.512   130613676.915       -2302.214          39.000  
C32  26138901.115   136112125.941       -2626.618          33.000  
C35  23094452.044   120258844.464        1430.346          28.000  
E05                                                                                                                                  27361979.995   107374291.805        1812.677          26.000  
G01  22622671.351   118882945.705        2156.582          40.000  
G08  20661012.379   108574339.425         865.270          37.000    20661015.077    81078270.907         645.768          32.000  
G10  22353299.133   117467396.600       -2447.152          42.000    22353304.229    87719168.363       -1827.721          38.000  
G16  23077089.264   121270944.317       -3673.730          41.000  
G21  21225934.991   111543040.419         271.697          34.000  
G22  24616626.964   129361222.417        2071.847          37.000  
G23  24749620.894   130060166.165       -3633.779          35.000  
G27  20743109.944   109005788.266       -1344.052          42.000    20743117.738    81400446.963       -1003.514          37.000  
G32  24120874.566   126756038.557        1789.799          34.000    24120880.262    94655520.041        1334.294          25.000  
R07  23556352.177   126098998.545        4098.435          39.000  
> 2022  5  5 15 44 58.9999964  0 18
C19  23266687.308   121155735.543        2534.005          41.000  
C20  23133041.329   120459811.331          -7.101          42.000  
C26  24771138.198   128989786.375        -852.732          38.000  
C29  21930174.756   114196173.726        -590.093          42.000  
C30  25083425.406   130615979.184       -2302.236          39.000  
C32  26139405.366   136114753.359       -2627.545          34.000  
C35  23094176.234   120257413.915        1430.881          29.000  
E05                                                                                                                                  27361518.015   107372478.741        1813.913          29.000  
G01  22622259.436   118880788.834        2158.121          37.000  
G08  20660846.294   108573473.516         866.078          39.000    20660851.090    81077624.374         646.829          34.000  
G10  22353766.809   117469842.765       -2446.541          41.000    22353771.006    87720995.611       -1826.790          36.000  
G16  23077788.380   121274618.203       -3674.510          39.000  
G21  21225883.427   111542768.919         271.373          36.000  
G22  24616233.036   129359150.378        2071.611          36.000  
G23  24750311.916   130063800.036       -3634.128          36.000  
G27  20743367.166   109007131.527       -1343.292          45.000    20743373.761    81401450.191       -1003.146          39.000  
G32                                                                  24120540.597    94654184.271        1336.023          31.000  
R07  23555586.507   126094899.454        4097.503          39.000  
> 2022  5  5 15 44 59.9999962  0 17
C19  23266140.486   121152889.374        2533.545          41.000  
C20  23132984.668   120459507.186          -8.473          40.000  
C26  24771240.127   128990326.291        -852.238          38.000  
C29  21930229.018   114196451.375        -590.077          44.000  
C30  25083808.241   130617968.775       -2302.019          40.000  
C32  26139850.558   136117068.818       -2627.937          34.000  
C35  23093841.366   120255669.906        1432.485          33.000  
E05                                                                                                                                  27360995.477   107370429.382        1814.197          28.000  
G01  22621789.061   118878315.926        2158.015          37.000  
G08  20660621.150   108572292.316         865.620          41.000    20660626.546    81076742.961         645.480          34.000  
G10  22354174.527   117471974.887       -2447.388          41.000    22354177.825    87722587.065       -1827.170          38.000  
G16  23078432.034   121277977.148       -3674.193          38.000  
G21  21225770.705   111542182.266         271.678          39.000  
G22  24615773.455   129356763.532        2072.171          37.000  
G27  20743563.830   109008160.029       -1344.360          43.000    20743569.825    81402218.554       -1003.932          40.000  
G32  24120134.079   126752144.5891       1789.302          40.000    24120140.674    94652612.090        1336.120          26.000  
R07  23554760.279   126090476.022        4097.076          42.000  
> 2022  5  5 15 45  0.9999959  0 17
C19  23265565.184   121149887.243        2534.990          40.000  
C20  23132895.929   120459047.149          -7.122          40.000  
C26  24771314.776   128990710.224        -852.569          37.000  
C29  21930252.402   114196572.788        -588.416          44.000  
C30  25084158.998   130619801.779       -2301.046          40.000  
C32  26140265.471   136119228.447       -2627.968          35.000  
C35  23093476.219   120253769.016        1432.924          34.000  
G01  22621289.007   118875685.242        2158.706          38.000  
G08  20660367.225   108570953.706         867.306          41.000    20660372.022    81075743.936         647.037          35.000  
G10  22354549.867   117473949.407       -2446.060          44.000    22354553.465    87724061.701       -1827.566          37.000  
G16  23079041.512   121281178.440       -3672.776          39.000  
G21  21225629.203   111541437.087         273.333          40.000  
G22  24615287.491   129354218.098        2074.948          37.000  
G23  24751547.360   130070280.8291      -3633.737          39.000  
G27  20743729.015   109009031.215       -1342.956          42.000    20743735.011    81402869.381       -1003.908          38.000  
G32  24119696.382   126749882.067        1790.140          40.000    24119710.772    94650923.022        1335.706          26.000  
R07  23553899.874   126085870.624        4097.168          42.000  
> 2022  5  5 15 45  1.9999959  0 17
C19  23265076.822   121147353.575        2532.479          40.000  
C20  23132898.028   120459055.778         -10.136          41.000  
C26  24771478.462   128991563.526        -853.741          38.000  
C29  21930364.525   114197162.391        -591.290          41.000  
C30  25084599.393   130622102.760       -2301.318          35.000  
C32  26140770.621   136121856.711       -2628.763          41.000  
C35  23093201.309   120252336.148        1432.495          38.000  
G01  22620876.193   118873527.252        2156.952          37.000  
G08  20660202.939   108570088.269         863.921          41.000    20660207.136    81075097.465         645.362          35.000  
G10  22355015.145   117476397.153       -2448.494          43.000    22355019.642    87725890.558       -1829.411          36.000  
G16  23079738.230   121284852.464       -3675.103          40.000  
G21  21225577.938   111541165.651         270.256          40.000  
G22  24614893.564   129352144.164        2072.968          35.000  
G23  24752241.979   130073915.245       -3634.804          40.000  
G27  20743985.038   109010375.758       -1345.099          42.000    20743991.034    81403873.622       -1004.757          37.000  
G32  24119356.717   126748092.775        1788.756          39.000    24119369.008    94649586.758        1335.881          30.000  
R07  23553136.303   126081783.335        4096.713          41.000  
> 2022  5  5 15 45  2.9999956  0 17
C19  23264500.621   121144350.763        2536.320          41.000  
C20  23132809.289   120458596.154          -7.575          40.000  
C26  24771553.410   128991949.393        -853.810          35.000  
C29  21930387.908   114197284.099        -588.813          42.000  
C30  25084949.851   130623935.454       -2300.842          33.000  
C32  26141184.934   136124016.779       -2627.899          41.000  
C35  23092836.162   120250435.313        1432.593          38.000  
G01  22620377.339   118870897.610        2158.190          36.000  
G08  20659948.415   108568750.856         865.984          42.000    20659952.612    81074098.798         647.083          37.000  
G10  22355390.485   117478371.962       -2446.562          42.000    22355393.783    87727365.317       -1826.714          36.000  
G16  23080347.408   121288053.982       -3672.548          39.000  
G21  21225435.237   111540421.999         272.590          41.000  
G22  24614409.699   129349598.572        2073.162          35.000  
G23  24752841.564   130077075.878       -3632.547          41.000  
G27  20744151.123   109011247.591       -1343.285          42.000    20744157.119    81404523.813       -1002.085          38.000  
G32  24118926.215   126745829.482        1791.506          39.000    24118937.907    94647897.117        1336.952          30.000  
R07  23552284.593   126077224.330        4100.488          41.000  
> 2022  5  5 15 45  3.9999954  0 17
C19  23263952.901   121141499.153        2541.300          41.000  
C20  23132749.031   120458289.599          -4.348          41.000  
C26  24771656.539   128992489.526        -851.777          31.000  
C29  21930441.571   114197559.467        -586.416          44.000  
C30  25085332.086   130625923.972       -2299.651          25.000  
C32  26141630.126   136126332.175       -2626.514          39.000  
C35  23092498.896   120248689.664        1435.856          38.000  
G01  22619910.562   118868422.482        2161.900          36.000  
G08  20659723.571   108567568.567         868.600          43.000    20659727.768    81073215.998         647.742          35.000  
G10  22355794.605   117480503.139       -2445.620          43.000    22355799.402    87728956.574       -1826.051          37.000  
G16  23080987.165   121291406.619       -3665.403          41.000  
G21  21225323.115   111539832.736         275.896          40.000  
G22  24613955.813   129347208.551        2077.005          34.000  
G23  24753472.328   130080393.574       -3632.335          40.000  
G27  20744347.187   109012273.440       -1339.419          42.000    20744351.984    81405290.425       -1001.968          37.000  
G32  24118523.893   126743720.414        1795.556          41.000    24118536.784    94646324.543        1336.247          24.000  
R07  23551456.566   126072791.726        4107.442          42.000  
> 2022  5  5 15 45  4.9999954  0 16
C19  23263465.738   121138959.976        2537.828          40.000  
C20  23132749.331   120458294.681          -5.844          40.000  
C26  24771818.727   128993339.984        -850.343          37.000  
C29  21930553.394   114198145.584        -587.130          41.000  
C30  25085773.380   130628221.877       -2296.242          30.000  
C32  26142134.377   136128957.189       -2625.015          40.000  
C35  23092223.386   120247254.069        1434.106          39.000  
G08  20659558.685   108566699.874         867.483          42.000    20659562.882    81072568.004         647.942          37.000  
G10  22356260.483   117482947.400       -2444.567          42.000    22356265.280    87730781.811       -1825.884          37.000  
G16  23081685.082   121295074.180       -3669.057          40.000  
G21  21225270.651   111539557.492         274.565          40.000  
G22  24613561.586   129345130.362        2078.791          36.000  
G23  24754165.148   130084023.811       -3630.120          40.000  
G27  20744602.011   109013613.431       -1341.233          41.000    20744607.407    81406290.794       -1000.830          36.000  
G32  24118182.730   126741925.545        1794.063          40.000    24118195.321    94644985.960        1339.698          30.000  
R07  23550688.198   126068678.673        4103.552          40.000  
> 2022  5  5 15 45  5.9999951  0 17
C19  23262888.038   121135954.737        2535.187          41.000  
C20  23132662.391   120457833.210          -8.796          42.000  
C26  24771892.176   128993722.765        -852.291          36.000  
C29  21930576.178   114198265.137        -589.101          41.000  
C30  25086124.437   130630049.800       -2296.907          31.000  
C32  26142550.189   136131114.734       -2627.631          40.000  
C35  23091858.239   120245352.469        1433.055          38.000  
G01  22618998.893   118863627.4611       2159.408          35.000  
G08  20659303.862   108565360.816         865.821          43.000    20659308.059    81071567.780         646.894          36.000  
G10  22356635.523   117484920.895       -2447.037          41.000    22356641.219    87732255.975       -1827.762          38.000  
G16  23082294.560   121298271.891       -3671.938          41.000  
G21  21225129.449   111538811.639         273.161          41.000  
G22  24613077.721   129342578.679        2078.762          36.000  
G23  24754765.333   130087182.874       -3633.215          40.000  
G27  20744767.796   109014483.182       -1344.119          41.000    20744772.893    81406940.215       -1003.517          36.000  
G32  24117750.729   126739659.781        1791.752          38.000    24117763.020    94643292.835        1339.879          30.000  
R07  23549829.592   126064081.810        4101.082          42.000  
> 2022  5  5 15 45  6.9999951  0 17
C19  23262402.674   121133420.921        2533.307          41.000  
C20  23132664.789   120457843.524         -10.768          39.000  
C26  24772055.563   128994575.829        -854.295          35.000  
C29  21930688.900   114198854.782        -590.787          41.000  
C30  25086566.032   130632348.363       -2300.366          30.000  
C32  26143055.040   136133742.841       -2629.470          42.000  
C35  23091583.330   120243918.652        1432.347          38.000  
G01  22618588.477   118861468.697        2157.908          36.000    22618592.374    88760202.2541       1611.553          32.000  
G08  20659139.875   108564495.463         864.058          42.000    20659142.873    81070921.257         644.993          35.000  
G10  22357100.501   117487369.129       -2449.576          42.000    22357106.797    87734084.352       -1829.739          38.000  
G16  23082994.575   121301945.210       -3673.549          41.000  
G21  21225077.285   111538538.761         271.947          40.000  
G22  24612683.794   129340501.560        2075.339          35.000  
G23  24755457.853   130090816.150       -3634.316          43.000  
G27  20745022.020   109015828.094       -1345.765          40.000    20745028.915    81407944.357       -1004.923          38.000  
G32  24117412.563   126737869.835        1789.754          37.000  
R07  23549066.021   126059994.425        4098.966          42.000  
> 2022  5  5 15 45  7.9999949  0 17
C19  23261855.852   121130574.353        2534.029          40.000  
C20  23132605.730   120457542.743         -12.596          39.000  
C26  24772159.591   128995118.379        -855.697          35.000  
C29  21930743.462   114199134.273        -592.554          42.000  
C30  25086947.967   130634337.527       -2302.401          23.000  
C32  26143501.431   136136061.744       -2632.191          42.000  
C35  23091248.461   120242174.702        1430.736          38.000  
G01  22618117.503   118858996.366        2156.568          34.000    22618121.700    88758355.517        1610.355          31.000  
G08  20658916.230   108563317.263         863.070          42.000    20658918.928    81070041.738         643.917          36.000  
G10  22357507.020   117489504.727       -2450.912          44.000  
G16  23083630.435   121305303.012       -3673.456          41.000  
G21  21224965.462   111537952.957         269.577          39.000  
G22  24612229.608   129338111.583        2073.945          36.000  
G23  24756090.415   130094137.140       -3636.891          42.000  
G27  20745218.384   109016859.122       -1346.876          41.000    20745225.279    81408714.546       -1006.710          37.000  
G32  24117012.939   126735764.514        1789.879          34.000  
R07  23548241.292   126055580.126        4100.023          41.000  
> 2022  5  5 15 45  8.9999949  0 17
C19  23261368.989   121128041.034        2533.299          39.000  
C20  23132608.129   120457554.863         -12.369          41.000  
C26  24772323.577   128995974.840        -857.271          35.000  
C29  21930856.784   114199725.412        -591.453          41.000  
C30  25087390.461   130636639.730       -2302.083          31.000  
C32  26144005.681   136138692.113       -2630.267          41.000  
C35  23090973.851   120240743.609        1429.543          39.000  
G01                                                                  22617711.884    88756745.629        1609.305          34.000  
G08  20658751.044   108562454.207         862.274          43.000    20658754.642    81069397.742         643.799          34.000  
G10  22357975.296   117491954.798       -2450.540          41.000  
G16  23084330.151   121308976.677       -3673.755          39.000  
G21  21224913.598   111537683.011         269.148          41.000  
G22  24611835.681   129336037.928        2073.475          36.000  
G23  24756781.137   130097772.172       -3634.911          41.000  
G27  20745475.906   109018206.025       -1346.900          39.000    20745481.302    81409720.122       -1006.206          36.000  
G32  24116673.874   126733975.106        1789.273          38.000  
R07  23547470.825   126051455.888        4099.050          41.000  
> 2022  5  5 15 45  9.9999949  0 17
C19  23260883.925   121125508.219        2531.792          41.000  
C20  23132611.726   120457566.937         -13.011          41.000  
C26  24772488.763   128996832.863        -858.732          34.000  
C29  21930970.105   114200317.274        -592.226          42.000  
C30  25087832.055   130638941.460       -2301.678          35.000  
C32  26144510.232   136141322.311       -2631.167          37.000  
C35  23090699.242   120239313.247        1430.928          39.000  
G01  22617294.273   118854685.9381       2154.234          32.000    22617302.068    88755136.903        1607.432          31.000  
G08  20658585.559   108561592.192         861.895          41.000    20658590.655    81068754.461         643.184          33.000  
G10  22358440.574   117494405.621       -2451.693          43.000  
G16  23085029.567   121312650.770       -3674.342          40.000  
G21  21224861.734   111537414.408         269.523          39.000  
G22  24611440.854   129333964.246        2073.451          33.000  
G23  24757473.058   130101407.557       -3636.042          41.000  
G27  20745732.828   109019552.781       -1347.684          42.000    20745736.725    81410726.326       -1006.574          35.000  
G32  24116334.809   126732185.877        1788.725          35.000  
R07  23546710.551   126047386.111        4099.634          39.000  
> 2022  5  5 15 45 10.9999946  0 18
C19  23260308.923   121122507.829        2532.885          41.000  
C20  23132525.086   120457112.509         -14.621          42.000  
C26  24772563.411   128997222.449        -857.619          26.000  
C29  21930993.189   114200440.986        -593.236          40.000  
C30  25088185.211   130640775.492       -2302.986          38.000  
C32  26144927.843   136143486.353       -2632.798          36.000  
C35  23090333.795   120237414.094        1428.810          37.000  
E04                                                                                                                                  28223663.564   110755718.7951       -603.335          31.000  
G01  22616794.519   118852058.990        2154.304          31.000    22616802.613    88753175.924        1607.916          31.000  
G08  20658330.735   108560257.714         860.696          40.000    20658336.431    81067758.072         642.792          34.000  
G10  22358818.312   117496385.290       -2453.536          42.000  
G16  23085639.344   121315853.010       -3674.186          41.000  
G21  21224720.532   111536672.278         268.389          36.000  
G22  24610955.790   129331418.665        2072.714          31.000  
G23  24758075.341   130104571.565       -3638.462          40.000  
G27  20745898.313   109020428.281       -1348.307          41.000    20745903.110    81411380.759       -1007.706          34.000  
G32  24115905.506   126729924.944        1787.872          36.000  
R07  23545855.244   126042807.478        4100.737          39.000  
> 2022  5  5 15 45 11.9999946  0 18
C19  23259821.161   121119975.609        2529.643          42.000  
C20  23132528.084   120457127.114         -14.930          39.000  
C26  24772729.196   128998081.488        -859.588          34.000  
C29  21931108.310   114201034.300        -592.710          40.000  
C30  25088628.304   130643078.538       -2303.182          36.000  
C32  26145432.394   136146120.090       -2631.569          37.000  
C35  23090060.084   120235985.517        1429.923          37.000  
E04                                                                                                                                  28223817.358   110756323.213        -605.087          32.000  
G01                                                                  22616392.797    88751567.461        1608.350          35.000  
G08  20658167.648   108559397.540         860.782          39.000    20658172.745    81067115.726         641.931          35.000  
G10  22359282.990   117498838.583       -2452.318          42.000  
G16  23086338.460   121319528.105       -3677.197          40.000  
G21  21224671.366   111536404.409         268.636          37.000  
G22  24610560.663   129329345.955        2072.151          31.000  
G23  24758766.063   130108209.556       -3636.061          40.000  
G27  20746154.936   109021777.075       -1348.906          41.000    20746159.732    81412387.851       -1007.088          37.000  
G32  24115565.841   126728137.342        1786.839          31.000  
R07  23545085.676   126038687.410        4097.394          39.000  
> 2022  5  5 15 45 12.9999944  0 17
C19  23259273.740   121117131.223        2534.851          43.000  
C20  23132470.224   120456828.445         -12.000          42.000  
C26  24772835.623   128998629.136        -858.927          35.000  
C29  21931161.073   114201313.164        -589.363          40.000  
C30  25089010.839   130645066.938       -2298.751          38.000  
C32  26145878.785   136148438.684       -2628.774          35.000  
C35  23089725.516   120234242.126        1432.320          37.000  
E04                                                                                                                                  28223910.893   110756691.511        -602.733          31.000  
G01  22615911.330   118847436.3101       2154.528          27.000    22615922.722    88749723.806        1609.267          35.000  
G08  20657945.502   108558220.735         863.505          40.000    20657949.099    81066238.079         643.928          36.000  
G10  22359691.308   117500974.643       -2450.369          40.000    22359695.205    87744244.9801      -1828.881          34.000  
G16  23086978.218   121322888.029       -3672.025          42.000  
G21  21224560.742   111535819.910         269.729          38.000  
G22  24610106.778   129326957.946        2073.612          31.000  
G23  24759398.625   130111529.747       -3633.347          39.000  
G27  20746350.101   109022809.420       -1346.003          40.000    20746356.396    81413158.789       -1005.888          37.000  
R07  23544262.146   126034279.616        4103.133          40.000  
> 2022  5  5 15 45 13.9999941  0 18
C19  23258697.539   121114128.591        2533.673          43.000  
C20  23132382.085   120456371.999         -13.523          41.000  
C26  24772910.571   128999020.086        -858.518          28.000  
C29  21931185.057   114201434.548        -590.066          38.000  
C30  25089363.395   130646897.483       -2299.928          39.000  
C32  26146292.798   136150599.390       -2630.297          38.000  
C35  23089360.368   120232340.361        1433.625          37.000  
E04                                                                                                                                  28223973.849   110756939.686        -600.029          32.000  
G01  22615410.677   118844808.182        2156.446          29.000    22615422.069    88747760.957        1611.075          34.000  
G08  20657690.678   108556884.334         863.675          39.000    20657694.875    81065240.262         645.900          34.000  
G10  22360068.747   117502951.856       -2450.338          40.000    22360072.044    87745721.367       -1830.207          37.000  
G16  23087587.096   121326087.784       -3672.974          43.000  
G21  21224419.840   111535076.679         270.680          37.000  
G22  24609621.414   129324410.392        2075.391          33.000  
G23  24759997.011   130114690.055       -3634.450          39.000  
G27  20746516.785   109023682.188       -1346.028          40.000    20746522.182    81413811.122       -1005.631          33.000  
G32  24114734.517   126723773.4481       1789.578          36.000  
R07  23543406.539   126029698.546        4102.188          40.000  
> 2022  5  5 15 45 14.9999941  0 18
C19  23258212.175   121111594.416        2533.949          43.000  
C20  23132385.083   120456385.447         -13.862          38.000  
C26  24773074.857   128999877.902        -858.014          32.000  
C29  21931298.378   114202025.347        -591.422          38.000  
C30  25089806.788   130649198.095       -2300.494          38.000  
C32  26146799.447   136153231.097       -2632.543          40.000  
C35  23089085.159   120230907.005        1432.726          30.000  
E04                                                                                                                                  28224126.444   110757539.944        -600.471          27.000  
G01  22615000.561   118842651.354        2157.030          37.000    22615011.653    88746149.742        1610.866          37.000  
G08  20657526.392   108556021.652         862.233          39.000    20657530.589    81064595.512         643.341          33.000  
G10  22360533.725   117505403.526       -2452.719          42.000    22360539.121    87747552.307       -1831.179          40.000  
G16  23088286.212   121329760.164       -3672.279          43.000  
G21  21224369.175   111534806.006         270.315          36.000  
G22  24609226.587   129322334.277        2076.412          35.000  
G23  24760694.028   130118325.873       -3636.101          36.000  
G27  20746771.009   109025028.620       -1347.555          38.000    20746778.804    81414817.016       -1006.609          37.000  
G32  24114393.353   126721983.598        1789.432          40.000  
R07  23542639.670   126025593.503        4102.852          41.000  
> 2022  5  5 15 45 15.9999939  0 18
C19  23257664.754   121108748.802        2533.884          40.000  
C20  23132327.223   120456086.532         -13.016          41.000  
C26  24773179.785   129000423.657        -858.763          33.000  
C29  21931353.240   114202304.232        -590.032          38.000  
C30  25090186.625   130651186.448       -2300.294          38.000  
C32  26147243.440   136155550.377       -2631.226          39.000  
C35  23088751.490   120229162.624        1431.549          26.000  
E04                                                                                                                                  28224218.780   110757905.780        -601.447          25.000  
G01  22614530.486   118840179.656        2155.090          38.000    22614540.979    88744303.808        1610.072          38.000  
G08  20657302.747   108554844.023         863.118          39.000    20657306.344    81063716.071         645.017          34.000  
G10  22360940.543   117507540.574       -2451.465          44.000    22360945.340    87749147.946       -1830.092          40.000  
G16  23088925.070   121333118.211       -3672.597          41.000  
G21  21224257.352   111534220.767         269.969          30.000  
G22  24608770.303   129319942.833        2076.630          33.000  
G23  24761326.890   130121647.209       -3636.201          33.000  
G27  20746968.573   109026060.657       -1345.826          39.000    20746975.468    81415588.319       -1006.438          38.000  
G32  24113988.633   126719879.662        1790.613          38.000  
R07  23541809.544   126021149.833        4101.338          39.000  
> 2022  5  5 15 45 16.9999936  0 18
C19  23257089.152   121105748.457        2530.033          41.000  
C20  23132239.684   120455633.296         -15.728          37.000  
C26  24773255.932   129000814.775        -859.992          37.000  
C29  21931376.024   114202427.145        -592.355          41.000  
C30  25090537.083   130653018.608       -2300.748          35.000  
C32  26147658.952   136157714.119       -2633.085          38.000  
C35  23088385.743   120227262.820        1431.286          37.000  
E04                                                                                                                                  28224282.636   110758154.634        -602.951          34.000  
G01  22614031.332   118837552.385        2153.345          38.000    22614041.525    88742341.984        1607.848          39.000  
G08  20657047.624   108553509.915         860.380          41.000    20657052.420    81062718.899         643.148          37.000  
G10  22361317.682   117509520.469       -2454.158          42.000    22361321.579    87750626.036       -1833.274          37.000  
G16  23089533.948   121336320.533       -3676.625          40.000  
G21  21224116.750   111533478.478         269.140          37.000  
G22  24608284.039   129317394.192        2074.721          33.000  
G23  24761927.974   130124810.320       -3635.545          38.000  
G27  20747135.557   109026935.583       -1349.626          41.000    20747142.452    81416242.109       -1008.061          38.000  
G32  24113559.030   126717616.916        1789.721          35.000  
R07  23540954.836   126016574.409        4098.363          40.000  
> 2022  5  5 15 45 17.9999936  0 18
C19  23256603.189   121103218.742        2530.341          42.000  
C20  23132242.082   120455649.844         -16.956          35.000  
C26  24773421.417   129001674.986        -860.538          37.000  
C29  21931490.545   114203020.714        -593.706          41.000  
C30  25090978.377   130655320.357       -2303.217          36.000  
C32  26148165.602   136160348.299       -2635.770          41.000  
C35  23088110.833   120225831.914        1430.413          38.000  
E04                                                                                                                                  28224436.729   110758757.693        -603.916          34.000  
G01  22613622.415   118835398.733        2153.801          37.000    22613631.409    88740733.763        1609.081          38.000  
G08  20656884.237   108552649.951         859.525          42.000    20656889.033    81062076.520         641.580          38.000  
G10  22361785.958   117511975.723       -2456.085          45.000    22361788.656    87752459.246       -1833.052          37.000  
G16  23090233.664   121339997.020       -3675.703          41.000  
G21  21224065.785   111533209.904         268.132          42.000  
G22  24607888.913   129315320.368        2072.816          34.000  
G23  24762619.295   130128446.114       -3636.989          42.000  
G27  20747395.477   109028286.182       -1351.084          38.000    20747399.974    81417250.532       -1009.047          41.000  
G32  24113218.466   126715829.333        1786.347          33.000  
