     3.03           OBSERVATION DATA    M: Mixed            RINEX VERSION / TYPE
Geo++ RINEX Logger  Geo++               20220505 155942 UTC PGM / RUN BY / DATE
************************************************************COMMENT
This file was generated by the Geo++ RINEX Logger App       COMMENT
for Android devices (Version 2.1.6). If you encounter       COMMENT
any issues, please send an email to android@geopp.de        COMMENT
Filtering Mode: MORE                                        COMMENT
************************************************************COMMENT
Geo++                                                       MARKER NAME
GEODETIC                                                    MARKER TYPE
Geo++               Geo++                                   OBSERVER / AGENCY
unknown             HUAWEI              ELE-L29             REC # / TYPE / VERS
unknown             ELE-L29                                 ANT # / TYPE
  5213931.4158  -264954.6093  3651872.6809                  APPROX POSITION XYZ
        0.0000        0.0000        0.0000                  ANTENNA: DELTA H/E/N
G    8 C1C L1C D1C S1C C5Q L5Q D5Q S5Q                      SYS / # / OBS TYPES
R    4 C1C L1C D1C S1C                                      SYS / # / OBS TYPES
E   12 C1B L1B D1B S1B C1C L1C D1C S1C C5Q L5Q D5Q S5Q      SYS / # / OBS TYPES
C    4 C2I L2I D2I S2I                                      SYS / # / OBS TYPES
J    8 C1C L1C D1C S1C C5Q L5Q D5Q S5Q                      SYS / # / OBS TYPES
  2022     5     5    16     0    0.9998705     GPS         TIME OF FIRST OBS
 24 R01  1 R02 -4 R03  5 R04  6 R05  1 R06 -4 R07  5 R08  6 GLONASS SLOT / FRQ #
    R09 -2 R10 -5 R11  0 R12 -1 R13 -2 R14 -7 R15  0 R16 -1 GLONASS SLOT / FRQ #
    R17  4 R18 -3 R19  3 R20  2 R21  4 R22 -3 R23  3 R24  2 GLONASS SLOT / FRQ #
G L1C                                                       SYS / PHASE SHIFT
G L5Q -0.25000                                              SYS / PHASE SHIFT
R L1C                                                       SYS / PHASE SHIFT
E L1B                                                       SYS / PHASE SHIFT
E L1C +0.50000                                              SYS / PHASE SHIFT
E L5Q -0.25000                                              SYS / PHASE SHIFT
C L2I                                                       SYS / PHASE SHIFT
J L1C                                                       SYS / PHASE SHIFT
J L5Q -0.25000                                              SYS / PHASE SHIFT
 C1C    0.000 C1P    0.000 C2C    0.000 C2P    0.000        GLONASS COD/PHS/BIS
                                                            END OF HEADER
> 2022  5  5 16  0  0.9998705  0 27
C19  22811764.844   118786780.122        2273.701          40.000  
C20  23138874.091   120490093.202        -493.571          42.000  
C24  27008975.875   140642680.311         792.829          26.000  
C26  24914027.078   129733730.132       -1231.319          30.000  
C29  22007446.862   114598459.581        -740.917          40.000  
C30  25450649.882   132528048.040       -2371.284          39.000  
C35  22812800.627   118792157.792        1374.748          35.000  
E02                                                                                                                                  24706526.927    96953696.985       -1805.726          36.000  
E05                                                                                                                                  26903704.353   105575900.022        1836.051          30.000  
E36                                                                                                                                  24410169.192    95790731.427        -914.452          35.000  
G01  22230702.005   116823124.225        1960.252          32.000    22230706.802    87238069.402        1463.051          36.000  
G03  24775796.673   130197738.538        3620.709          41.000    24775816.159    97225721.914        2703.284          24.000  
G08  20498914.297   107722515.684         571.341          38.000    20498920.892    80442155.926         427.305          38.000  
G10  22766107.352   119636673.306       -2785.771          42.000    22766111.849    89339085.785       -2080.331          36.000  
G16  23682729.088   124453548.214       -3799.053          37.000  
G21  21156992.919   111180748.0391         92.493          35.000  
G22  24225829.207   127307566.654        2027.918          37.000  
G27  20963780.277   110165391.988       -1663.615          41.000    20963787.472    82266398.690       -1242.207          38.000  
G32  23795801.509   125047713.981        1544.273          39.000    23795808.405    93379872.058        1152.372          30.000  
R05  22146347.003   118384917.009       -2497.323          41.000  
R06  20447974.162   109114235.977        1821.995          28.000  
R07  22826356.043   122191271.930        4092.053          41.000  
R11  21725095.429   116092323.664       -3263.781          38.000  
R12  21993287.964   117484197.660         306.006          36.000  
R20  22702327.406   121399548.026       -2319.472          25.000  
R21  20366037.586   108982781.837          19.288          41.000  
R22  21980200.224   117331801.608        1804.781          25.000  
> 2022  5  5 16  0  1.9998705  0 26
C19  22811328.046   118784505.779        2274.806          41.000  
C20  23138969.425   120490587.268        -493.179          40.000  
C26  24914264.514   129734962.272       -1233.352          30.000  
C29  22007587.164   114599200.524        -739.615          40.000  
C30  25451104.367   132530418.711       -2371.145          39.000  
C35  22812537.109   118790784.058        1372.128          36.000  
E02                                                                                                                                  24706986.809    96955502.132       -1805.706          34.000  
E05                                                                                                                                  26903236.377   105574064.300        1836.075          31.000  
E36                                                                                                                                  24410402.430    95791646.272        -915.317          35.000  
G01  22230330.862   116821164.751        1958.824          37.000    22230334.759    87236606.578        1462.497          36.000  
G03  24775106.850   130194117.680        3620.338          39.000    24775128.136    97223018.781        2702.398          28.000  
G08  20498805.772   107721944.886         572.159          38.000    20498811.468    80441729.265         427.920          38.000  
G10  22766636.186   119639460.122       -2785.959          41.000    22766641.882    89341166.296       -2080.358          35.000  
G16  23683450.988   124457346.272       -3797.894          37.000  
G21  21156975.231   111180656.640          90.067          37.000  
G22  24225443.974   127305539.032        2028.365          39.000  
G27  20964098.656   110167055.739       -1662.285          41.000    20964103.753    82267641.041       -1241.654          37.000  
G32  23795505.614   125046169.132        1546.233          39.000    23795515.507    93378718.899        1154.473          29.000  
R05  22146810.482   118387395.030       -2497.685          40.000  
R06  20447628.202   109112414.294        1821.767          27.000  
R07  22825590.373   122187172.866        4093.807          40.000  
R11  21725704.608   116095578.749       -3264.229          35.000  
R12  21993228.605   117483880.559         303.362          32.000  
R20  22702758.507   121401853.084       -2319.829          26.000  
R21  20366034.588   108982765.620          18.571          42.000  
R22  21979863.257   117330003.511        1802.195          21.000  
> 2022  5  5 16  0  2.9998702  0 25
C19  22810801.311   118781765.912        2269.411          41.000  
C20  23138974.221   120490613.105        -495.396          42.000  
C26  24914412.311   129735727.027       -1232.928          31.000  
C29  22007638.729   114599472.452        -740.743          39.000  
C30  25451468.915   132532321.593       -2371.645          37.000  
C35  22812183.654   118788942.649        1374.168          34.000  
E02                                                                                                                                  24707357.053    96956955.492       -1806.893          32.000  
E05                                                                                                                                  26902679.063   105571876.305        1833.925          32.000  
E36                                                                                                                                  24410545.131    95792207.870        -914.504          35.000  
G01  22229868.282   116818733.474        1959.266          34.000    22229872.480    87234791.085        1463.235          38.000  
G03  24774327.390   130190027.043        3617.495          41.000    24774349.874    97219964.078        2701.187          33.000  
G08  20498607.609   107720899.663         572.736          39.000    20498613.006    80440948.052         427.321          38.000  
G10  22767076.581   119641771.977       -2784.980          42.000    22767082.577    89342892.785       -2079.723          37.000  
G16  23684085.049   124460675.234       -3802.478          40.000  
G21  21156866.706   111180093.112          91.891          36.000  
G22  24224967.904   127303041.418        2023.731          37.000  
G27  20964325.899   110168247.023       -1665.133          42.000    20964330.096    82268531.336       -1243.900          36.000  
G32  23795123.079   125044150.953        1543.607          35.000    23795132.373    93377212.529        1152.398          34.000  
R05  22147186.722   118389405.963       -2496.374          41.000  
R06  20447195.301   109110113.504        1819.252          29.000  
R07  22824733.566   122182586.808        4088.063          38.000  
R11  21726224.148   116098355.187       -3265.443          34.000  
R12  21993082.006   117483097.303         304.395          32.000  
R21  20365944.650   108982284.427          22.179          41.000  
R22  21979429.757   117327689.330        1804.513          22.000  
> 2022  5  5 16  0  3.9998700  0 26
C19  22810306.054   118779182.564        2274.387          40.000  
C20  23139007.798   120490796.174        -493.766          40.000  
C26  24914589.489   129736647.792       -1234.036          35.000  
C29  22007721.172   114599901.106        -740.172          41.000  
C30  25451863.442   132534380.548       -2368.405          37.000  
C35  22811860.478   118787256.502        1372.715          37.000  
E02                                                                                                                                  24707757.276    96958527.576       -1808.238          32.000  
E05                                                                                                                                  26902151.728   105569806.621        1835.452          33.000  
E36                                                                                                                                  24410718.411    95792887.359        -915.367          35.000  
G01  22229436.281   116816459.419        1958.048          35.000    22229439.879    87233092.897        1461.950          37.000  
G03  24773579.108   130186093.554        3620.129          37.000    24773601.293    97217027.402        2701.929          35.000  
G08  20498440.625   107720013.792         570.410          39.000    20498444.522    80440286.716         425.584          38.000  
G10  22767546.955   119644242.534       -2786.011          42.000    22767552.052    89344737.779       -2079.192          36.000  
G16  23684749.089   124464161.352       -3798.651          38.000  
G21  21156789.060   111179686.179          91.243          35.000  
G22  24224518.815   127300699.764        2028.291          36.000  
G27  20964581.322   110169596.383       -1662.521          42.000    20964587.018    82269539.692       -1242.367          37.000  
G32  23794769.924   125042292.579        1543.516          38.000    23794778.917    93375825.639        1151.979          31.000  
R05  22147595.039   118391588.386       -2499.273          40.000  
R06  20446793.280   109107974.630        1818.832          27.000  
R07  22823903.440   122178142.141        4094.357          41.000  
R11  21726776.666   116101307.939       -3266.697          31.000  
R12  21992961.190   117482451.737         303.188          34.000  
R20  22703478.009   121405700.7131      -2318.197          18.000  
R21  20365875.698   108981914.784          17.945          42.000  
R22  21979027.436   117325541.896        1801.938          23.000  
> 2022  5  5 16  0  4.9998700  0 25
C19  22809869.256   118776909.251        2271.477          42.000  
C20  23139102.533   120491290.321        -495.039          41.000  
C26  24914825.725   129737881.581       -1233.570          30.000  
C29  22007862.074   114600640.818        -739.179          39.000  
C30  25452318.527   132536749.904       -2370.880          37.000  
C35  22811596.960   118785883.495        1373.036          35.000  
E02                                                                                                                                  24708218.057    96960334.454       -1805.993          31.000  
E05                                                                                                                                  26901684.052   105567970.700        1836.059          35.000  
E36                                                                                                                                  24410951.950    95793801.891        -914.346          35.000  
G01  22229063.939   116814501.259        1958.450          35.000    22229065.138    87231631.551        1461.445          29.000  
G03  24772891.684   130182474.023        3619.295          37.000    24772913.269    97214325.180        2702.698          36.000  
G08  20498331.500   107719442.145         571.442          39.000    20498335.997    80439860.228         425.818          39.000  
G10  22768077.588   119647028.393       -2785.592          42.000    22768082.684    89346817.320       -2080.419          36.000  
G16  23685473.088   124467960.950       -3801.179          40.000  
G21  21156771.972   111179594.792          91.645          39.000  
G22  24224135.680   127298672.939        2025.831          36.000  
G27  20964898.203   110171259.936       -1664.450          41.000    20964903.899    82270781.668       -1242.540          36.000  
G32  23794476.427   125040748.959        1543.164          37.000    23794485.421    93374673.218        1152.549          36.000  
R05  22148067.812   118394116.474       -2499.258          41.000  
R06  20446451.516   109106155.303        1819.163          29.000  
R07  22823139.569   122174053.937        4091.593          41.000  
R11  21727387.643   116104572.803       -3266.701          28.000  
R12  21992903.630   117482144.013         302.526          28.000  
R20  22703907.012   121407994.224       -2319.578          26.000  
R21  20365870.002   108981885.167          20.549          42.000  
> 2022  5  5 16  0  5.9998697  0 27
C19  22809343.120   118774169.750        2271.635          40.000  
C20  23139109.428   120491317.518        -496.247          42.000  
C24  27007976.367   140637480.1541        789.026          31.000  
C26  24914973.223   129738647.282       -1234.525          31.000  
C29  22007916.037   114600913.195        -741.891          40.000  
C30  25452683.374   132538652.339       -2370.548          38.000  
C35  22811243.805   118784042.050        1372.523          35.000  
E02                                                                                                                                  24708588.900    96961788.432       -1807.642          28.000  
E05                                                                                                                                  26901126.438   105565781.666        1837.093          37.000  
E36                                                                                                                                  24411095.250    95794363.301        -914.892          35.000  
G01                                                                  22228603.158    87229816.939        1461.406          34.000  
G03  24772114.622   130178382.640        3618.516          35.000    24772134.408    97211269.903        2702.848          35.000  
G08  20498131.539   107718399.380         569.662          39.000    20498137.535    80439082.191         424.613          39.000  
G10  22768516.484   119649341.593       -2786.452          41.000    22768523.379    89348544.318       -2080.197          34.000  
G16  23686108.348   124471288.936       -3799.824          40.000  
G21  21156664.946   111179031.322          89.560          37.000  
G22  24223659.909   127296173.092        2027.901          40.000  
G27  20965124.546   110172451.805       -1664.714          42.000    20965130.542    82271672.027       -1244.169          37.000  
G32  23794089.395   125038732.119        1544.483          43.000    23794101.386    93373167.509        1153.171          35.000  
R05  22148444.951   118396131.767       -2499.841          41.000  
R06  20446017.716   109103856.471        1818.786          29.000  
R07  22822285.760   122169482.968        4091.780          41.000  
R11  21727906.283   116107343.665       -3268.132          28.000  
R12  21992757.031   117481361.360         301.436          30.000  
R20  22704257.769   121409870.607       -2317.113          25.000  
R21  20365776.466   108981383.895          17.370          42.000  
R22  21978271.060   117321504.2251       1802.758          18.000  
> 2022  5  5 16  0  6.9998697  0 26
C19  22808906.922   118771897.259        2272.261          39.000  
C20  23139203.563   120491813.834        -497.525          41.000  
C26  24915211.858   129739882.054       -1234.830          33.000  
C29  22008060.237   114601655.297        -742.382          39.000  
C30  25453137.859   132541022.250       -2369.684          31.000  
C35  22810980.287   118782669.765        1372.092          39.000  
E02                                                                                                                                  24709049.381    96963596.778       -1808.698          29.000  
E05                                                                                                                                  26900658.462   105563944.677        1836.583          29.000  
E36                                                                                                                                  24411328.489    95795278.519        -915.577          34.000  
G01                                                                  22228231.116    87228355.286        1461.890          34.000  
G03  24771427.498   130174763.716        3619.622          35.000    24771444.886    97208565.691        2704.617          30.000  
G08  20498021.515   107717830.013         570.123          39.000    20498029.010    80438657.212         425.105          37.000  
G10  22769047.117   119652128.920       -2787.670          40.000    22769052.813    89350624.268       -2081.273          33.000  
G16  23686830.848   124475087.903       -3799.493          38.000  
G21  21156650.256   111178941.404          90.453          38.000  
G22  24223272.877   127294145.667        2026.746          39.000  
G27  20965442.027   110174116.887       -1666.263          39.000    20965448.022    82272916.120       -1244.942          34.000  
G32  23793794.099   125037187.478        1544.249          38.000  
R05  22148909.929   118398617.214       -2502.116          39.000  
R06  20445676.553   109102038.149        1817.725          29.000  
R07  22821524.887   122165410.016        4092.916          39.000  
R11  21728517.261   116110608.676       -3267.858          31.000  
R12  21992700.370   117481057.953         299.694          35.000  
R20  22704693.068   121412198.055       -2319.467          27.000  
R21  20365778.865   108981396.613          17.868          42.000  
R22  21977932.594   117319697.055        1801.900          24.000  
> 2022  5  5 16  0  7.9998697  0 27
C19  22808470.125   118769626.651        2269.861          39.000  
C20  23139298.297   120492311.579        -498.138          40.000  
C24  27007666.382   140635903.2041        788.740          23.000  
C26  24915448.094   129741115.499       -1232.513          32.000  
C29  22008202.638   114602396.792        -741.400          40.000  
C30  25453593.244   132543392.745       -2371.578          42.000  
C35  22810716.769   118781296.874        1374.213          38.000  
E02                                                                                                                                  24709510.162    96965405.053       -1807.901          35.000  
E05                                                                                                                                  26900189.586   105562108.851        1833.660          28.000  
E36                                                                                                                                  24411562.027    95796193.688        -914.775          36.000  
G01  22227854.876   116808156.2291       1958.623          34.000    22227858.774    87226892.686        1463.287          36.000  
G03  24770738.874   130171144.096        3619.494          40.000    24770755.962    97205861.889        2702.745          35.000  
G08  20497916.288   107717259.135         570.673          40.000    20497921.085    80438231.713         425.389          38.000  
G10  22769578.649   119654915.899       -2787.150          41.000    22769583.146    89352705.320       -2081.473          38.000  
G16  23687552.748   124478888.816       -3801.979          39.000  
G21  21156636.465   111178849.284          92.789          39.000  
G22  24222885.845   127292119.933        2024.687          33.000  
G27  20965756.509   110175783.248       -1667.088          40.000    20965765.503    82274160.814       -1244.675          37.000  
G32  23793500.602   125035644.683        1540.793          36.000  
R05  22149380.303   118401132.481       -2501.292          41.000  
R06  20445335.988   109100221.114        1815.520          27.000  
R07  22820761.615   122161324.289        4089.765          42.000  
R11  21729131.535   116113891.379       -3267.397          33.000  
R12  21992643.710   117480755.766         301.306          32.000  
R20  22705125.069   121414507.824       -2321.722          25.000  
R21  20365774.668   108981374.624          20.402          42.000  
R22  21977596.527   117317903.161        1803.798          20.000  
> 2022  5  5 16  0  8.9998697  0 27
C19  22808035.725   118767356.750        2269.466          41.000  
C20  23139396.629   120492808.501        -495.666          41.000  
C24  27007509.890   140635114.037         790.169          24.000  
C26  24915684.930   129742347.996       -1232.661          33.000  
C29  22008343.541   114603137.260        -739.908          40.000  
C30  25454048.629   132545764.684       -2371.632          41.000  
C35  22810451.453   118779921.971        1375.054          40.000  
E02                                                                                                                                  24709970.643    96967212.761       -1808.313          36.000  
E05                                                                                                                                  26899722.210   105560275.136        1833.460          30.000  
E36                                                                                                                                  24411795.566    95797107.714        -912.724          37.000  
G01  22227482.234   116806196.738        1959.300          35.000    22227485.532    87225428.851        1463.009          35.000  
G03  24770047.253   130167525.475        3616.375          42.000    24770067.339    97203159.477        2700.680          35.000  
G08  20497808.063   107716688.434         571.061          42.000    20497812.560    80437805.743         425.917          39.000  
G10  22770108.682   119657701.402       -2783.595          41.000    22770113.778    89354786.332       -2079.988          35.000  
G16  23688274.649   124482690.700       -3802.621          38.000  
G21  21156619.377   111178757.583          91.616          38.000  
G22  24222500.912   127290095.098        2024.716          29.000  
G27  20966075.188   110177448.726       -1664.280          40.000    20966080.285    82275405.260       -1243.734          32.000  
G32  23793209.504   125034102.282        1543.780          40.000  
R05  22149844.682   118403614.372       -2498.221          42.000  
R06  20444996.923   109098405.537        1815.698          28.000  
R07  22819997.145   122157232.128        4089.158          42.000  
R11  21729745.510   116117171.902       -3268.262          40.000  
R12  21992584.351   117480438.253         301.248          34.000  
R20  22705557.969   121416823.267       -2319.471          25.000  
R21  20365771.969   108981360.497          22.051          43.000  
R22  21977259.260   117316102.913        1805.452          24.000  
> 2022  5  5 16  0  9.9998694  0 27
C19  22807511.089   118764618.581        2271.166          40.000  
C20  23139400.526   120492837.026        -498.208          41.000  
C24  27007268.557   140633855.256         790.246          32.000  
C26  24915832.128   129743112.110       -1232.329          33.000  
C29  22008396.304   114603409.278        -741.627          40.000  
C30  25454418.273   132547667.593       -2371.323          40.000  
C35  22810097.098   118778078.411        1375.162          39.000  
E02                                                                                                                                  24710341.786    96968668.200       -1808.185          34.000  
E05                                                                                                                                  26899164.896   105558087.901        1835.267          29.000  
E36                                                                                                                                  24411938.267    95797668.691        -915.408          36.000  
G01  22227019.654   116803764.763        1959.360          36.000    22227022.952    87223613.113        1462.062          36.000  
G03  24769267.493   130163434.433        3621.685          38.000    24769288.778    97200105.285        2702.327          33.000  
G08  20497608.701   107715645.182         570.398          41.000    20497613.497    80437027.265         425.741          37.000  
G10  22770549.976   119660014.357       -2788.195          41.000    22770553.874    89356513.248       -2080.175          35.000  
G16  23688909.010   124486019.452       -3799.700          37.000  
G21  21156511.452   111178192.665          91.792          39.000  
G22  24222026.040   127287597.337        2025.343          37.000  
G27  20966302.731   110178641.151       -1666.981          40.000    20966306.928    82276295.703       -1243.876          36.000  
G32  23792826.969   125032087.323        1541.784          40.000  
R05  22150223.619   118405640.535       -2502.547          40.000  
R06  20444567.920   109096110.262        1814.859          30.000  
R07  22819143.935   122152664.434        4092.030          41.000  
R11  21730268.648   116119967.559       -3266.838          36.000  
R12  21992438.652   117479660.609         300.774          34.000  
R20  22705896.435   121418632.419       -2318.069          15.000  
R21  20365676.336   108980848.125          19.206          41.000  
R22  21976823.062   117313774.729        1805.752          23.000  
> 2022  5  5 16  0 10.9998694  0 27
C19  22807072.792   118762346.855        2271.324          39.000  
C20  23139496.160   120493335.784        -499.087          42.000  
C24  27007114.764   140633065.549         789.044          23.000  
C26  24916069.264   129744344.028       -1232.031          29.000  
C29  22008539.305   114604150.606        -742.521          41.000  
C30  25454875.157   132550039.599       -2371.984          41.000  
C35  22809832.981   118776702.992        1374.248          39.000  
E02                                                                                                                                  24710801.968    96970474.644       -1805.938          35.000  
E05                                                                                                                                  26898697.519   105556252.345        1835.941          34.000  
E25                                                                                                                                  27922416.213   109573424.0011      -2473.971          32.000  
E36                                                                                                                                  24412170.606    95798583.487        -914.557          36.000  
G01  22226644.614   116801804.294        1960.553          35.000    22226650.610    87222150.142        1463.171          34.000  
G03  24768576.471   130159811.908        3623.223          37.000    24768600.155    97197402.080        2704.238          34.000  
G08  20497499.876   107715074.829         569.777          38.000    20497504.673    80436601.361         424.431          37.000  
G10  22771079.710   119662803.059       -2789.368          40.000    22771084.806    89358594.329       -2081.988          37.000  
G16  23689633.008   124489818.600       -3798.106          40.000  
G21  21156491.066   111178100.441          91.006          38.000  
G22  24221641.107   127285571.814        2026.265          37.000  
G27  20966620.810   110180308.286       -1667.651          39.000    20966625.307    82277539.737       -1244.335          40.000  
G32  23792534.671   125030546.274        1541.622          43.000  
R05  22150689.197   118408129.346       -2505.095          41.000  
R06  20444228.855   109094295.481        1814.788          30.000  
R07  22818379.465   122148572.086        4093.789          41.000  
R11  21730878.426   116123226.043       -3266.314          35.000  
R12  21992380.192   117479347.587         300.733          32.000  
R21  20365674.537   108980838.978          18.143          44.000  
R22  21976481.598   117311951.502        1806.071          21.000  
> 2022  5  5 16  0 11.9998692  0 27
C19  22806576.336   118759762.877        2270.505          42.000  
C20  23139530.636   120493522.889        -498.906          41.000  
C24  27006900.412   140631965.309         788.501          24.000  
C26  24916245.542   129745264.081       -1232.234          32.000  
C29  22008619.949   114604579.854        -740.307          40.000  
C30  25455270.883   132552099.809       -2371.514          39.000  
C35  22809508.306   118775015.416        1376.827          38.000  
E02                                                                                                                                  24711202.191    96972044.576       -1805.616          38.000  
E05                                                                                                                                  26898169.585   105554180.668        1837.284          33.000  
E25                                                                                                                                  27922986.119   109575661.680       -2472.913          34.000  
E36                                                                                                                                  24412344.186    95799262.949        -914.005          38.000  
G01  22226207.517   116799528.238        1961.467          31.000    22226217.710    87220450.658        1465.050          36.000  
G03  24767826.990   130155873.147        3620.794          37.000    24767850.674    97194461.793        2705.018          36.000  
G08  20497331.393   107714189.603         570.271          40.000    20497336.789    80435940.707         425.772          38.000  
G10  22771549.784   119665277.049       -2787.755          43.000    22771555.780    89360441.623       -2082.726          39.000  
G16  23690294.650   124493301.348       -3799.865          41.000  
G21  21156413.720   111177692.719          93.736          38.000  
G22  24221195.615   127283230.732        2025.493          36.000  
G27  20966876.533   110181659.861       -1666.642          40.000    20966882.529    82278548.510       -1244.368          35.000  
G32  23792181.216   125028690.480        1539.947          45.000  
R05  22151096.915   118410308.136       -2503.403          41.000  
R06  20443829.531   109092160.774        1814.396          29.000  
R07  22817556.834   122144168.362        4091.845          40.000  
R11  21731427.945   116126162.346       -3265.379          41.000  
R12  21992265.072   117478732.681         300.455          33.000  
R21  20365610.981   108980498.224          20.345          42.000  
R22  21976080.776   117309812.408        1806.653          22.000  
> 2022  5  5 16  0 12.9998689  0 27
C19  22806049.600   118757025.061        2268.129          40.000  
C20  23139535.433   120493552.907        -498.437          35.000  
C24  27006658.479   140630707.416         789.700          26.000  
C26  24916393.040   129746028.303       -1232.927          37.000  
C29  22008671.514   114604851.505        -740.795          40.000  
C30  25455635.131   132554001.895       -2370.563          37.000  
C35  22809153.652   118773170.951        1375.675          37.000  
E02                                                                                                                                  24711572.434    96973498.571       -1808.306          35.000  
E05                                                                                                                                  26897611.371   105551990.845        1836.990          30.000  
E25                                                                                                                                  27923526.345   109577782.402       -2474.356          32.000  
E36                                                                                                                                  24412486.287    95799823.603        -913.246          36.000  
G01  22225742.838   116797094.501        1960.345          35.000    22225754.530    87218633.405        1463.347          37.000  
G03  24767049.628   130151781.898        3617.904          40.000    24767071.513    97191404.761        2702.181          36.000  
G08  20497131.131   107713146.854         569.827          41.000    20497138.326    80435162.389         425.371          39.000  
G10  22771989.280   119667590.311       -2785.224          41.000    22771996.175    89362170.229       -2079.845          40.000  
G16  23690927.512   124496630.181       -3803.161          39.000  
G21  21156306.094   111177127.728          91.951          37.000  
G22  24220721.044   127280732.747        2025.309          34.000  
G27  20967105.875   110182853.676       -1666.472          40.000    20967110.072    82279439.713       -1244.631          39.000  
G32  23791797.481   125026676.666        1540.734          41.000  
R05  22151474.353   118412326.171       -2501.080          42.000  
R06  20443398.730   109089866.891        1813.574          29.000  
R07  22816699.128   122139577.646        4089.053          41.000  
R11  21731950.184   116128953.504       -3267.800          40.000  
R12  21992116.974   117477942.308         299.272          33.000  
R21  20365518.645   108980004.877          21.583          42.000  
R22  21975658.968   117307560.550        1806.602          23.000  
> 2022  5  5 16  0 13.9998689  0 27
C19  22805615.201   118754757.208        2267.664          41.000  
C20  23139630.167   120494051.451        -498.909          36.000  
C24  27006505.585   140629916.712         791.520          18.000  
C26  24916630.476   129747261.703       -1234.014          36.000  
C29  22008814.515   114605591.890        -740.605          40.000  
C30  25456090.215   132556372.334       -2370.615          39.000  
C35  22808890.734   118771795.337        1375.540          37.000  
E02                                                                                                                                  24712033.815    96975307.404       -1809.262          38.000  
E05                                                                                                                                  26897143.395   105550154.734        1834.594          31.000  
E25                                                                                                                                  27924158.008   109580258.275       -2477.033          33.000  
E36                                                                                                                                  24412719.226    95800736.120        -913.421          37.000  
G01  22225370.796   116795134.909        1958.568          35.000    22225381.588    87217170.651        1462.095          34.000  
G03  24766361.904   130148164.267        3617.922          41.000    24766383.489    97188702.736        2702.317          38.000  
G08  20497023.506   107712576.946         569.820          39.000    20497029.802    80434736.416         425.472          39.000  
G10  22772518.713   119670376.234       -2786.720          42.000    22772526.508    89364250.196       -2080.775          41.000  
G16  23691651.511   124500433.163       -3802.273          39.000  
G21  21156289.605   111177035.349          92.251          36.000  
G22  24220335.511   127278707.317        2025.723          34.000  
G27  20967423.954   110184520.490       -1667.289          41.000    20967428.152    82280684.368       -1245.446          39.000  
G32  23791504.284   125025135.751        1540.582          40.000  
R05  22151946.826   118414851.815       -2502.815          41.000  
R06  20443060.564   109088053.713        1812.719          27.000  
R07  22815931.959   122135470.847        4088.783          42.000  
R11  21732573.153   116132282.289       -3270.624          40.000  
R12  21992060.613   117477640.397         298.521          35.000  
R21  20365514.748   108979983.908          20.951          40.000  
R22  21975314.506   117305721.474        1807.052          23.000  
> 2022  5  5 16  0 14.9998687  0 26
C19  22805119.644   118752176.073        2269.286          42.000  
C20  23139666.442   120494238.745        -500.580          39.000  
C26  24916808.253   129748182.521       -1232.024          36.000  
C29  22008899.356   114606021.813        -743.242          41.000  
C30  25456486.241   132558432.193       -2373.759          40.000  
C35  22808566.658   118770106.680        1376.834          35.000  
E02                                                                                                                                  24712434.937    96976880.384       -1807.139          39.000  
E05                                                                                                                                  26896616.660   105548085.256        1834.307          34.000  
E25                                                                                                                                  27924729.412   109582499.145       -2475.386          34.000  
E36                                                                                                                                  24412892.206    95801415.440        -915.017          38.000  
G01  22224938.795   116792860.806        1960.209          30.000    22224948.988    87215473.076        1462.993          36.000  
G03  24765611.824   130144228.725        3622.886          37.000    24765634.608    97185763.560        2705.711          38.000  
G08  20496855.322   107711692.588         567.961          38.000    20496861.318    80434076.440         423.715          38.000  
G10  22772991.486   119672849.657       -2790.333          42.000    22772996.882    89366096.925       -2083.819          39.000  
G16  23692313.752   124503918.340       -3799.651          40.000  
G21  21156212.859   111176628.153          91.411          35.000  
G22  24219890.619   127276366.624        2025.522          31.000  
G27  20967679.677   110185873.354       -1668.942          41.000    20967684.474    82281694.517       -1245.499          36.000  
G32  23791152.628   125023281.243        1538.825          43.000  
R05  22152353.944   118417027.522       -2507.830          43.000  
R06  20442658.842   109085921.515        1811.237          28.000  
R07  22815110.228   122131071.638        4093.124          40.000  
R11  21733122.972   116135220.497       -3267.198          41.000  
R12  21991945.493   117477025.692         298.140          36.000  
R21  20365447.894   108979625.557          18.446          41.000  
R22  21974918.480   117303607.459        1806.913          24.000  
> 2022  5  5 16  0 15.9998687  0 26
C19  22804683.146   118749904.827        2271.079          41.000  
C20  23139762.975   120494739.979        -501.972          41.000  
C26  24917042.690   129749415.129       -1233.373          32.000  
C29  22009040.858   114606764.970        -742.153          40.000  
C30  25456942.226   132560806.152       -2373.661          36.000  
C35  22808302.841   118768731.133        1375.387          35.000  
E02                                                                                                                                  24712894.219    96978685.996       -1806.018          37.000  
E05                                                                                                                                  26896148.384   105546250.166        1836.338          32.000  
E25                                                                                                                                  27925359.876   109584973.003       -2473.742          33.000  
E36                                                                                                                                  24413125.445    95802331.007        -915.181          37.000  
G01  22224565.553   116790900.412        1960.474          30.000    22224576.046    87214009.412        1463.746          30.000  
G03  24764923.500   130140603.639        3624.827          38.000    24764944.785    97183056.972        2706.625          40.000  
G08  20496747.697   107711124.989         567.649          40.000    20496753.393    80433652.635         424.306          39.000  
G10  22773522.718   119675641.208       -2791.678          42.000    22773527.515    89368181.483       -2083.925          37.000  
G16  23693038.051   124507715.820       -3797.837          40.000  
G21  21156195.171   111176537.650          90.639          36.000  
G22  24219505.086   127274341.176        2025.414          34.000  
G27  20967996.558   110187541.973       -1668.369          41.000    20968002.254    82282939.829       -1245.181          38.000  
G32  23790858.232   125021742.113        1539.141          40.000  
R05  22152826.118   118419551.898       -2508.542          42.000  
R06  20442319.777   109084110.353        1810.985          29.000  
R07  22814346.956   122126986.150        4094.326          42.000  
R11  21733737.846   116138505.695       -3265.549          40.000  
R12  21991890.331   117476731.200         296.737          36.000  
R21  20365442.797   108979598.423          17.730          41.000  
R22  21974583.612   117301820.081        1806.007          25.000  
> 2022  5  5 16  0 16.9998684  0 26
C19  22804156.111   118747164.729        2271.236          40.000  
C20  23139771.370   120494772.029        -497.431          40.000  
C26  24917189.289   129750180.794       -1234.675          31.000  
C29  22009093.022   114607037.699        -738.806          41.000  
C30  25457307.073   132562710.218       -2370.949          37.000  
C35  22807949.085   118766887.862        1374.750          35.000  
E02                                                                                                                                  24713264.763    96980139.474       -1806.481          36.000  
E05                                                                                                                                  26895589.571   105544060.505        1837.941          30.000  
E25                                                                                                                                  27925900.102   109587093.139       -2472.253          37.000  
E36                                                                                                                                  24413268.446    95802892.594        -912.679          37.000  
G01  22224102.974   116788467.779        1959.165          33.000    22224113.167    87212193.032        1462.858          35.000  
G03  24764142.541   130136508.087        3620.843          37.000    24764165.325    97179998.049        2703.571          40.000  
G08  20496550.733   107710084.638         569.956          39.000    20496555.530    80432875.231         425.853          39.000  
G10  22773962.214   119677958.207       -2786.920          42.000    22773968.210    89369911.470       -2080.465          36.000  
G16  23693667.915   124511040.274       -3796.444          40.000  
G21  21156086.646   111175973.794          91.505          34.000  
G22  24219030.214   127271842.144        2027.697          35.000  
G27  20968223.501   110188736.023       -1664.830          40.000    20968229.497    82283831.309       -1244.046          38.000  
G32  23790473.298   125019727.880        1542.744          40.000  
R05  22153201.158   118421556.294       -2504.243          41.000  
R06  20441891.673   109081819.010        1812.347          29.000  
R07  22813494.646   122122423.860        4093.159          43.000  
R11  21734256.487   116141277.945       -3270.114          38.000  
R12  21991744.932   117475954.838         294.786          35.000  
R21  20365350.461   108979104.823          20.645          42.000  
R22  21974154.310   117299528.400        1804.802          25.000  
> 2022  5  5 16  0 17.9998684  0 26
C19  22803721.712   118744895.674        2267.583          39.000  
C20  23139867.303   120495270.710        -500.554          42.000  
C26  24917426.724   129751415.431       -1234.668          33.000  
C29  22009235.124   114607776.972        -740.704          39.000  
C30  25457760.959   132565080.388       -2369.961          36.000  
C35  22807685.268   118765512.336        1376.258          37.000  
E02                                                                                                                                  24713725.244    96981946.856       -1807.776          36.000  
E05                                                                                                                                  26895120.995   105542222.419        1838.366          28.000  
E25                                                                                                                                  27926529.966   109589566.415       -2474.183          34.000  
E36                                                                                                                                  24413500.785    95803803.930        -912.358          36.000  
G01  22223730.332   116786508.383        1959.315          34.000    22223740.824    87210730.209        1463.073          35.000  
G03  24763453.018   130132889.155        3619.038          38.000    24763477.002    97177295.833        2702.677          39.000  
G08  20496441.609   107709514.566         569.101          38.000    20496446.405    80432448.812         426.308          34.000  
G10  22774493.746   119680744.349       -2786.728          42.000    22774498.543    89371991.251       -2080.940          35.000  
G16  23694388.916   124514838.731       -3799.817          36.000  
G21  21156068.059   111175881.771          93.219          36.000  
G22  24218644.681   127269814.419        2027.557          38.000  
G27  20968539.782   110190402.428       -1667.146          42.000    20968546.377    82285076.118       -1245.921          36.000  
G32  23790178.602   125018186.807        1539.756          38.000  
R05  22153666.736   118424045.462       -2504.125          42.000  
R06  20441555.006   109080007.020        1811.484          28.000  
R07  22812729.276   122118326.190        4090.516          41.000  
R11  21734869.263   116144551.669       -3270.065          38.000  
R12  21991689.770   117475659.435         295.749          33.000  
R21  20365345.964   108979080.307          21.982          42.000  
R22  21973821.840   117297754.054        1807.272          22.000  
> 2022  5  5 16  0 18.9998682  0 26
C19  22803227.054   118742315.382        2269.217          39.000  
C20  23139904.178   120495459.170        -499.955          41.000  
C26  24917603.602   129752338.092       -1234.954          28.000  
C29  22009318.466   114608205.465        -741.043          42.000  
C30  25458155.186   132567138.058       -2370.345          37.000  
C35  22807360.593   118763823.702        1376.171          37.000  
E02                                                                                                                                  24714126.067    96983520.250       -1808.953          35.000  
E05                                                                                                                                  26894593.061   105540149.465        1837.176          32.000  
E25                                                                                                                                  27927100.770   109591805.866       -2475.054          35.000  
E36                                                                                                                                  24413673.466    95804482.158        -913.721          35.000  
G01  22223298.331   116784234.721        1958.469          32.000    22223307.624    87209032.240        1462.341          36.000  
G03  24762702.038   130128954.111        3619.579          35.000    24762727.520    97174357.860        2702.460          38.000  
G08  20496274.025   107708630.256         568.406          38.000    20496277.922    80431788.151         425.058          38.000  
G10  22774963.521   119683216.414       -2787.610          41.000    22774969.816    89373837.940       -2081.814          36.000  
G16  23695056.853   124518324.211       -3800.696          40.000  
G21  21155989.513   111175473.626          92.618          35.000  
G22  24218199.190   127267472.474        2026.347          38.000  
G27  20968797.903   110191754.782       -1667.964          40.000    20968804.199    82286086.318       -1244.942          37.000  
G32  23789827.545   125016331.694        1541.233          39.000  
R05  22154078.351   118426246.271       -2506.030          40.000  
R06  20441154.183   109077875.832        1811.040          28.000  
R07  22811901.849   122113897.277        4091.506          44.000  
R11  21735417.284   116147479.907       -3271.124          42.000  
R12  21991574.050   117475042.189         295.388          33.000  
R21  20365284.507   108978751.893          20.974          42.000  
R22  21973424.615   117295632.883        1801.869          24.000  
> 2022  5  5 16  0 19.9998682  0 25
C19  22802790.557   118740044.930        2271.321          39.000  
C20  23140000.711   120495959.534        -500.844          40.000  
C26  24917841.038   129753573.700       -1236.157          31.000  
C29  22009459.668   114608946.636        -741.380          40.000  
C30  25458609.371   132569507.241       -2368.068          36.000  
C35  22807095.876   118762449.482        1373.662          39.000  
E02                                                                                                                                  24714587.447    96985328.804       -1808.264          34.000  
E05                                                                                                                                  26894125.085   105538312.930        1837.654          27.000  
E25                                                                                                                                  27927730.934   109594280.023       -2472.938          35.000  
E36                                                                                                                                  24413906.104    95805395.044        -913.375          37.000  
G01  22222926.588   116782276.993        1956.378          36.000    22222934.083    87207569.797        1462.579          31.000  
G03  24762013.115   130125333.436        3622.436          37.000    24762038.298    97171654.099        2704.442          39.000  
G08  20496164.001   107708062.574         567.080          39.000    20496169.697    80431363.859         423.657          40.000  
G10  22775492.655   119686004.800       -2788.803          40.000    22775499.550    89375920.179       -2082.774          35.000  
G16  23695781.452   124522123.065       -3796.967          39.000  
G21  21155970.926   111175381.842          90.830          37.000  
G22  24217811.558   127265443.816        2029.569          39.000  
G27  20969115.683   110193422.424       -1666.879          40.000    20969121.679    82287330.823       -1245.334          39.000  
G32  23789532.549   125014789.808        1542.067          39.000  
R05  22154551.423   118428774.890       -2508.224          40.000  
R06  20440816.317   109076065.443        1811.581          29.000  
R07  22811143.374   122109837.045        4096.320          43.000  
R11  21736025.862   116150732.257       -3271.425          34.000  
R12  21991520.387   117474754.590         292.098          31.000  
R21  20365280.010   108978727.985          17.289          41.000  
> 2022  5  5 16  0 20.9998679  0 26
C19  22802263.521   118737304.982        2270.345          40.000  
C20  23140007.006   120495991.659        -501.412          40.000  
C26  24917987.336   129754341.986       -1237.181          26.000  
C29  22009511.532   114609218.386        -740.782          40.000  
C30  25458973.919   132571406.627       -2367.604          39.000  
C35  22806740.622   118760606.508        1373.620          39.000  
E02                                                                                                                                  24714958.290    96986783.649       -1807.905          33.000  
E05                                                                                                                                  26893566.271   105536122.135        1837.217          29.000  
E09                                                                                                                                  26283539.884   103142199.4451        787.776          32.000  
E36                                                                                                                                  24414048.506    95805954.749        -912.256          35.000  
G01  22222463.709   116779847.832        1956.807          32.000    22222471.503    87205754.854        1462.096          33.000  
G03  24761237.252   130121238.597        3621.528          38.000    24761259.437    97168596.074        2705.160          39.000  
G08  20495965.538   107707021.898         567.227          40.000    20495971.834    80430586.257         423.055          39.000  
G10  22775934.848   119688320.438       -2788.154          40.000    22775939.945    89377649.733       -2082.309          36.000  
G16  23696415.813   124525447.706       -3798.981          37.000  
G21  21155863.301   111174818.179          89.850          39.000  
G22  24217334.588   127262941.757        2028.728          41.000  
G27  20969343.226   110194615.481       -1667.378          41.000    20969348.622    82288222.024       -1244.558          37.000  
G32  23789150.314   125012775.015        1541.333          39.000  
R05  22154928.562   118430791.192       -2508.019          40.000  
R06  20440384.316   109073772.929        1813.084          28.000  
R07  22810287.467   122105255.230        4094.110          37.000  
R11  21736546.902   116153516.436       -3270.731          33.000  
R12  21991376.787   117473988.424         291.521          33.000  
R21  20365183.777   108978212.262          19.533          42.000  
R22  21972658.945   117291545.7241       1804.501          24.000  
> 2022  5  5 16  0 21.9998679  0 25
C19  22801826.124   118735034.276        2272.191          39.000  
C20  23140102.940   120496492.989        -501.008          40.000  
C26  24918225.072   129755579.846       -1238.212          32.000  
C29  22009653.334   114609959.437        -740.735          40.000  
C30  25459427.805   132573773.819       -2367.351          38.000  
C35  22806478.304   118759233.500        1374.316          39.000  
E02                                                                                                                                  24715419.071    96988591.603       -1806.896          34.000  
E05                                                                                                                                  26893098.295   105534283.340        1840.089          34.000  
E09                                                                                                                                  26283339.623   103141411.209         789.220          32.000  
E36                                                                                                                                  24414281.145    95806868.065        -913.765          36.000  
G01  22222092.266   116777891.454        1956.517          34.000    22222099.760    87204293.720        1460.962          35.000  
G03  24760549.228   130117615.819        3623.583          40.000    24760570.214    97165890.795        2705.988          39.000  
G08  20495860.011   107706455.143         567.222          41.000    20495864.208    80430163.262         423.860          37.000  
G10  22776466.380   119691109.431       -2789.904          41.000    22776470.877    89379732.907       -2083.816          35.000  
G16  23697136.214   124529244.793       -3795.892          38.000  
G21  21155851.609   111174728.851          90.405          38.000  
G22  24216949.055   127260911.676        2029.838          39.000  
G27  20969661.306   110196282.656       -1666.795          41.000    20969666.102    82289466.652       -1244.825          36.000  
G32  23788856.817   125011232.590        1542.213          40.000  
R05  22155395.339   118433285.704       -2509.774          40.000  
R06  20440046.150   109071960.638        1812.249          30.000  
R07  22809519.998   122101147.021        4096.072          42.000  
R11  21737156.380   116156773.234       -3270.297          34.000  
