% program   : RTKPOST ver.demo5 b34d
% inp file  : Z:\home\ilyahoo\assa\kucci.22o
% inp file  : Z:\home\ilyahoo\assa\Meli2022.05.05.15-40-02.obs
% inp file  : Z:\home\ilyahoo\assa\brdc1250.22n
% obs start : 2022/05/05 15:44:41.0 GPST (week2208 402281.0s)
% obs end   : 2022/05/05 16:14:41.0 GPST (week2208 404081.0s)
% pos mode  : Kinematic
% freqs     : L1+L2/E5b+L5+L6
% solution  : Combined-Phase Reset
% elev mask : 15.0 deg
% dynamics  : on
% tidecorr  : off
% ionos opt : Broadcast
% tropo opt : Saastamoinen
% ephemeris : Broadcast
% navi sys  : GPS GLONASS Galileo QZSS BDS
% amb res   : Fix and Hold
% amb glo   : AutoCal
% val thres : 3.0
% antenna1  :                       ( 0.0000  0.0000  0.0000)
% antenna2  :                       ( 0.0000  0.0000  0.0000)
% ref pos   : 35.281190000   -2.951660000    88.8000
%
% (lat/lon/height=WGS84/ellipsoidal,Q=1:fix,2:float,3:sbas,4:dgps,5:single,6:ppp,ns=# of satellites)
%  GPST                  latitude(deg) longitude(deg)  height(m)   Q  ns   sdn(m)   sde(m)   sdu(m)  sdne(m)  sdeu(m)  sdun(m) age(s)  ratio
2022/05/05 15:44:41.000   35.154449040   -2.905546481    50.3906   2   6   1.2509   0.8260   1.4765  -0.7034  -0.5369  -0.7780  -0.00    0.0
2022/05/05 15:44:42.000   35.154436908   -2.905541110    50.6933   2   7   0.8927   0.5767   1.2254  -0.3834  -0.1707  -0.6313  -0.00    0.0
2022/05/05 15:44:43.000   35.154430702   -2.905534558    51.9140   2   7   1.2084   0.7349   1.4360  -0.5817  -0.3463  -0.8410  -0.00    0.0
2022/05/05 15:44:44.000   35.154430777   -2.905531052    51.4519   2   7   0.8444   0.5614   1.1904  -0.2998  -0.0687  -0.6061  -0.00    0.0
2022/05/05 15:44:45.000   35.154424737   -2.905530003    51.3562   2   7   1.1419   0.7247   1.3277  -0.5012  -0.3039  -0.7413  -0.00    0.0
2022/05/05 15:44:46.000   35.154426473   -2.905531390    50.5190   2   7   0.8359   0.5790   1.1622  -0.2203   0.1073  -0.5826  -0.00    0.0
2022/05/05 15:44:47.000   35.154421026   -2.905528061    50.3073   2   7   1.1585   0.7545   1.2932  -0.4359  -0.2323  -0.7049  -0.00    0.0
2022/05/05 15:44:48.000   35.154424640   -2.905529123    50.8582   2   7   0.8608   0.6336   1.1411   0.0925   0.1599  -0.5601  -0.00    0.0
2022/05/05 15:44:49.000   35.154425886   -2.905528667    51.5456   2   6   1.3284   0.9023   1.2862   0.1362   0.1436  -0.5681  -0.00    0.0
2022/05/05 15:44:50.000   35.154419611   -2.905530033    51.5045   2   7   0.8569   0.6296   1.1259   0.0873   0.1641  -0.5588  -0.00    0.0
2022/05/05 15:44:51.000   35.154414228   -2.905533931    51.8963   2   7   1.1628   0.7797   1.2670   0.5118   0.2733  -0.6580  -0.00    0.0
2022/05/05 15:44:52.000   35.154417949   -2.905529887    51.6031   2   7   0.8194   0.5744   1.1137   0.2329   0.1788  -0.5702  -0.00    0.0
2022/05/05 15:44:53.000   35.154419414   -2.905531122    51.1851   2   7   1.1311   0.7477   1.2215   0.5628   0.3105  -0.6525  -0.00    0.0
2022/05/05 15:44:54.000   35.154417101   -2.905533363    50.6937   2   6   0.7262   0.3433   1.1485  -0.2614   0.1107  -0.6302  -0.00    0.0
2022/05/05 15:44:55.000   35.154427705   -2.905535019    48.3499   2   7   0.9096   0.3685   1.4760  -0.3224   0.1774  -0.8931  -0.00    0.0
2022/05/05 15:44:56.000   35.154427165   -2.905535746    50.0240   2   5   0.6617   0.3319   1.1283  -0.1467   0.1319  -0.6404  -0.00    0.0
2022/05/05 15:44:57.000   35.154427523   -2.905544021    51.6332   2   7   0.8403   0.3598   1.1506  -0.3282   0.3379  -0.7329  -0.00    0.0
2022/05/05 15:44:58.000   35.154423650   -2.905542444    51.8294   2   7   0.8320   0.3619   1.1501  -0.2647   0.2474  -0.7471  -0.00    0.0
2022/05/05 15:44:59.000   35.154417086   -2.905539148    51.8902   2   6   1.1822   0.4721   1.1702  -0.6040   0.4268  -0.8055  -0.00    0.0
2022/05/05 15:45:00.000   35.154434070   -2.905547392    52.0146   2   7   0.5741   0.3538   1.1078  -0.0962   0.2010  -0.5964  -0.00    0.0
2022/05/05 15:45:01.000   35.154437545   -2.905546017    51.8165   2   7   0.6036   0.3506   1.1551  -0.1982   0.3448  -0.6088  -0.00    0.0
2022/05/05 15:45:02.000   35.154435341   -2.905546324    51.7034   2   7   0.5849   0.3880   1.0791  -0.1273   0.2630  -0.5724  -0.00    0.0
2022/05/05 15:45:03.000   35.154438054   -2.905545212    51.7547   2   7   0.6431   0.3569   1.2349  -0.2281   0.3830  -0.6539  -0.00    0.0
2022/05/05 15:45:04.000   35.154430217   -2.905542737    52.3013   2   7   0.6417   0.3624   1.2287  -0.1509   0.2573  -0.6686  -0.00    0.0
2022/05/05 15:45:05.000   35.154428347   -2.905540015    52.5614   2   6   0.6793   0.5236   1.3789  -0.3592   0.6639  -0.7007  -0.00    0.0
2022/05/05 15:45:06.000   35.154425742   -2.905537749    52.2323   2   7   0.6295   0.3845   1.0388  -0.1437   0.2386  -0.5428  -0.00    0.0
2022/05/05 15:45:07.000   35.154429246   -2.905539061    52.1017   2   7   0.6865   0.3456   1.1320  -0.2325   0.3677  -0.5746  -0.00    0.0
2022/05/05 15:45:08.000   35.154421625   -2.905538188    52.0409   2   7   0.6893   0.3650   1.1505  -0.1342   0.2101  -0.6183  -0.00    0.0
2022/05/05 15:45:09.000   35.154420768   -2.905546237    51.7643   2   6   0.7441   0.4766   1.1637  -0.2984   0.4870  -0.5750  -0.00    0.0
2022/05/05 15:45:10.000   35.154418027   -2.905536436    52.4118   2   7   0.7037   0.3645   1.0493  -0.2711   0.3846  -0.5203  -0.00    0.0
2022/05/05 15:45:11.000   35.154415012   -2.905539818    53.0916   2   7   0.8230   0.4387   1.3185  -0.3411   0.5650  -0.6387  -0.00    0.0
2022/05/05 15:45:12.000   35.154412223   -2.905533354    52.9675   2   6   0.8075   0.3538   1.1404  -0.2220   0.2152  -0.5972  -0.00    0.0
2022/05/05 15:45:13.000   35.154398176   -2.905531281    53.5254   2   6   1.2315   0.4762   1.0706  -0.5007   0.4540  -0.4360  -0.00    0.0
2022/05/05 15:45:14.000   35.154407069   -2.905529837    53.8958   2   7   0.4331   0.3406   0.9046  -0.1317   0.3090  -0.4779  -0.00    0.0
2022/05/05 15:45:15.000   35.154403954   -2.905528080    54.1985   2   7   0.4699   0.4373   1.0718  -0.2114   0.4669  -0.5610  -0.00    0.0
2022/05/05 15:45:16.000   35.154400771   -2.905525747    54.1490   2   7   0.4420   0.3361   0.9133  -0.1280   0.3002  -0.4842  -0.00    0.0
2022/05/05 15:45:17.000   35.154400720   -2.905525973    54.2883   2   7   0.4808   0.4348   1.0869  -0.2091   0.4611  -0.5707  -0.00    0.0
2022/05/05 15:45:18.000   35.154394375   -2.905522924    54.4894   2   7   0.4519   0.3308   0.9233  -0.1234   0.2887  -0.4912  -0.00    0.0
2022/05/05 15:45:19.000   35.154390183   -2.905522322    55.2936   2   7   0.4889   0.4401   1.0762  -0.1839   0.4302  -0.5673  -0.00    0.0
2022/05/05 15:45:20.000   35.154391121   -2.905521645    54.4571   2   7   0.4655   0.3294   0.9543  -0.1371   0.3021  -0.5091  -0.00    0.0
2022/05/05 15:45:21.000   35.154390356   -2.905524256    53.8252   2   7   0.5270   0.4794   1.2526  -0.2782   0.5738  -0.6590  -0.00    0.0
2022/05/05 15:45:22.000   35.154387006   -2.905514425    54.2641   2   6   0.4873   0.3328   0.9717   0.0768   0.1459  -0.5316  -0.00    0.0
2022/05/05 15:45:23.000   35.154378423   -2.905512219    55.1825   2   7   0.5047   0.3201   1.0276  -0.1281   0.2776  -0.5527  -0.00    0.0
2022/05/05 15:45:24.000   35.154374141   -2.905507867    55.0352   2   7   0.4962   0.3364   0.9747   0.0484   0.1698  -0.5323  -0.00    0.0
2022/05/05 15:45:25.000   35.154368269   -2.905505178    55.7911   2   7   0.5176   0.3270   1.0522  -0.1541   0.3131  -0.5626  -0.00    0.0
2022/05/05 15:45:26.000   35.154360199   -2.905502989    55.2389   2   7   0.5063   0.3451   0.9843  -0.0523   0.2103  -0.5343  -0.00    0.0
2022/05/05 15:45:27.000   35.154355368   -2.905496506    55.4105   2   7   0.5333   0.3343   1.0840  -0.1805   0.3503  -0.5767  -0.00    0.0
2022/05/05 15:45:28.000   35.154350895   -2.905491887    54.9858   2   7   0.5198   0.3528   1.0037  -0.0933   0.2470  -0.5423  -0.00    0.0
2022/05/05 15:45:29.000   35.154344329   -2.905488320    55.4332   2   7   0.5512   0.3432   1.1207  -0.2098   0.3929  -0.5930  -0.00    0.0
2022/05/05 15:45:30.000   35.154339819   -2.905486289    56.0132   2   7   0.5272   0.3847   0.9991  -0.1367   0.3161  -0.5301  -0.00    0.0
2022/05/05 15:45:31.000   35.154335731   -2.905484217    56.5640   2   7   0.5851   0.3485   1.2102  -0.2349   0.4269  -0.6450  -0.00    0.0
2022/05/05 15:45:32.000   35.154337910   -2.905481573    55.8216   2   7   0.5722   0.3760   1.1122  -0.1165   0.2746  -0.6078  -0.00    0.0
2022/05/05 15:45:33.000   35.154336743   -2.905487170    55.3398   2   6   0.6108   0.4587   1.3525  -0.3551   0.6587  -0.6959  -0.00    0.0
2022/05/05 15:45:34.000   35.154334134   -2.905481901    56.1657   2   7   0.5825   0.3630   1.0733  -0.0984   0.2241  -0.5853  -0.00    0.0
2022/05/05 15:45:35.000   35.154328180   -2.905475801    56.1510   2   6   0.5614   0.4417   0.9999  -0.3069   0.5665  -0.4661  -0.00    0.0
2022/05/05 15:45:36.000   35.154327016   -2.905481752    55.1314   2   7   0.5283   0.3344   0.7801  -0.2283   0.3831  -0.3564  -0.00    0.0
2022/05/05 15:45:37.000   35.154330002   -2.905478092    53.5412   2   7   0.5776   0.3947   0.9386  -0.2761   0.5044  -0.4207  -0.00    0.0
2022/05/05 15:45:38.000   35.154323840   -2.905472407    54.2710   2   7   0.5507   0.3210   0.7691  -0.2233   0.3686  -0.3405  -0.00    0.0
2022/05/05 15:45:39.000   35.154317743   -2.905469612    55.7964   2   7   0.6047   0.3755   0.9201  -0.2626   0.4821  -0.3897  -0.00    0.0
2022/05/05 15:45:40.000   35.154321321   -2.905478386    54.4158   2   7   0.5789   0.3101   0.7601  -0.2205   0.3567  -0.3219  -0.00    0.0
2022/05/05 15:45:41.000   35.154323459   -2.905471203    52.8682   2   7   0.6414   0.3591   0.9047  -0.2516   0.4629  -0.3532  -0.00    0.0
2022/05/05 15:45:42.000   35.154320550   -2.905470128    52.9878   2   7   0.6147   0.3006   0.7518  -0.2198   0.3461  -0.2994  -0.00    0.0
2022/05/05 15:45:43.000   35.154311740   -2.905469986    53.6666   2   7   0.6917   0.3451   0.8924  -0.2424   0.4464  -0.3041  -0.00    0.0
2022/05/05 15:45:44.000   35.154311290   -2.905470083    53.4711   2   7   0.6613   0.2923   0.7444  -0.2220   0.3362  -0.2702  -0.00    0.0
2022/05/05 15:45:45.000   35.154308014   -2.905469034    53.3362   2   7   0.7638   0.3326   0.8852  -0.2359   0.4323  -0.2250  -0.00    0.0
2022/05/05 15:45:46.000   35.154306017   -2.905469061    53.3241   2   7   0.7318   0.2851   0.7367  -0.2298   0.3260  -0.2231  -0.00    0.0
2022/05/05 15:45:47.000   35.154304743   -2.905468503    53.1373   2   6   1.2274   0.4526   0.9322  -0.5312   0.5099  -0.3215  -0.00    0.0
2022/05/05 15:45:48.000   35.154302860   -2.905469116    53.0045   2   7   0.7871   0.3411   0.7481  -0.3322   0.3671  -0.3118  -0.00    0.0
2022/05/05 15:45:49.000   35.154302487   -2.905468017    52.6910   2   7   1.1059   0.3974   0.9068  -0.4197   0.4678  -0.1980  -0.00    0.0
2022/05/05 15:45:50.000   35.154299869   -2.905463430    52.3754   2   7   0.7650   0.3246   0.7415  -0.3083   0.3515  -0.2992  -0.00    0.0
2022/05/05 15:45:51.000   35.154296781   -2.905463006    51.7215   2   7   1.0729   0.3751   0.9020  -0.3720   0.4496  -0.0145  -0.00    0.0
2022/05/05 15:45:52.000   35.154296777   -2.905461674    52.1576   2   6   0.6888   0.3151   0.7287  -0.3020   0.3419  -0.3624  -0.00    0.0
2022/05/05 15:45:53.000   35.154298355   -2.905464311    51.9464   2   7   1.0439   0.4361   0.8412  -0.5514   0.4726  -0.5886  -0.00    0.0
2022/05/05 15:45:54.000   35.154294232   -2.905461697    52.2494   2   7   0.7230   0.3472   0.7508  -0.3376   0.3734  -0.3832  -0.00    0.0
2022/05/05 15:45:55.000   35.154289025   -2.905458008    52.3404   2   7   1.0503   0.4399   0.8605  -0.5447   0.4818  -0.5706  -0.00    0.0
2022/05/05 15:45:56.000   35.154286580   -2.905456020    51.7462   2   7   0.7408   0.3504   0.7655  -0.3305   0.3806  -0.3593  -0.00    0.0
2022/05/05 15:45:57.000   35.154288486   -2.905458238    51.1403   2   7   1.0661   0.4432   0.8825  -0.5360   0.4910  -0.5415  -0.00    0.0
2022/05/05 15:45:58.000   35.154281168   -2.905456164    51.3825   2   7   0.7831   0.3531   0.7825  -0.3243   0.3867  -0.3148  -0.00    0.0
2022/05/05 15:45:59.000   35.154273923   -2.905449394    52.1724   2   6   1.1630   0.4752   1.0035  -0.5000   0.5623  -0.3626  -0.00    0.0
2022/05/05 15:46:00.000   35.154276553   -2.905454931    51.5185   2   7   0.7830   0.3546   0.7888  -0.3241   0.3892  -0.3176  -0.00    0.0
2022/05/05 15:46:01.000   35.154269118   -2.905455636    51.0595   2   7   1.1004   0.4149   0.9497  -0.4197   0.4942  -0.2479  -0.00    0.0
2022/05/05 15:46:02.000   35.154273129   -2.905454609    51.6924   2   6   0.7702   0.3443   0.7975  -0.3016   0.3863  -0.3026  -0.00    0.0
2022/05/05 15:46:03.000   35.154274649   -2.905452871    51.9626   2   6   1.1626   0.4745   1.0068  -0.5000   0.5591  -0.3686  -0.00    0.0
2022/05/05 15:46:04.000   35.154273555   -2.905453231    51.6714   2   7   0.7821   0.3523   0.7941  -0.3245   0.3851  -0.3272  -0.00    0.0
2022/05/05 15:46:05.000   35.154272879   -2.905452265    51.6032   2   7   1.0983   0.4144   0.9566  -0.4185   0.4932  -0.2625  -0.00    0.0
2022/05/05 15:46:06.000   35.154268067   -2.905448744    51.8398   2   7   0.7647   0.3363   0.7924  -0.3024   0.3725  -0.3216  -0.00    0.0
2022/05/05 15:46:07.000   35.154269584   -2.905447096    52.1237   2   7   1.0631   0.3900   0.9504  -0.3729   0.4728  -0.2010  -0.00    0.0
2022/05/05 15:46:08.000   35.154261933   -2.905443845    52.2893   2   7   0.7431   0.3236   0.7941  -0.2819   0.3642  -0.3220  -0.00    0.0
2022/05/05 15:46:09.000   35.154256510   -2.905442366    52.5220   2   7   1.0386   0.3657   0.9434  -0.3262   0.4502  -0.0717  -0.00    0.0
2022/05/05 15:46:10.000   35.154252269   -2.905435779    53.7197   2   6   0.6481   0.3243   0.7946  -0.2944   0.3714  -0.4231  -0.00    0.0
2022/05/05 15:46:11.000   35.154235136   -2.905428436    55.0137   2   7   1.0748   0.4790   0.9339  -0.6014   0.5298  -0.6780  -0.00    0.0
2022/05/05 15:46:12.000   35.154248243   -2.905436744    54.0504   2   6   0.3923   0.3386   0.8828  -0.0406   0.4333  -0.3333  -0.00    0.0
2022/05/05 15:46:13.000   35.154245486   -2.905436609    53.7093   2   7   0.4088   0.3121   0.8664   0.0479   0.3900  -0.3380  -0.00    0.0
2022/05/05 15:46:14.000   35.154238172   -2.905429505    54.9332   2   7   0.4006   0.3342   0.8707   0.0311   0.4212  -0.3279  -0.00    0.0
2022/05/05 15:46:15.000   35.154238020   -2.905431160    54.2724   2   7   0.4188   0.3135   0.8703   0.0666   0.3898  -0.3353  -0.00    0.0
2022/05/05 15:46:16.000   35.154233871   -2.905428538    53.8440   2   7   0.4104   0.3349   0.8704   0.0517   0.4188  -0.3261  -0.00    0.0
2022/05/05 15:46:17.000   35.154234016   -2.905429702    53.0522   2   7   0.4298   0.3152   0.8752   0.0845   0.3902  -0.3308  -0.00    0.0
2022/05/05 15:46:18.000   35.154232508   -2.905425457    53.9037   2   7   0.4212   0.3358   0.8711   0.0686   0.4171  -0.3234  -0.00    0.0
2022/05/05 15:46:19.000   35.154229558   -2.905425285    53.2607   2   7   0.4422   0.3175   0.8819   0.1027   0.3918  -0.3242  -0.00    0.0
2022/05/05 15:46:20.000   35.154228298   -2.905424373    53.1703   2   7   0.4332   0.3372   0.8731   0.0849   0.4161  -0.3193  -0.00    0.0
2022/05/05 15:46:21.000   35.154219789   -2.905428053    52.0179   2   7   0.4561   0.3206   0.8907   0.1220   0.3949  -0.3144  -0.00    0.0
2022/05/05 15:46:22.000   35.154218800   -2.905424570    53.1528   2   7   0.4470   0.3386   0.8757   0.1012   0.4153  -0.3138  -0.00    0.0
2022/05/05 15:46:23.000   35.154215637   -2.905417847    52.9352   2   7   0.4720   0.3251   0.9032   0.1436   0.4009  -0.2995  -0.00    0.0
2022/05/05 15:46:24.000   35.154217553   -2.905412964    54.0257   2   7   0.4623   0.3426   0.8835   0.1219   0.4189  -0.3028  -0.00    0.0
2022/05/05 15:46:25.000   35.154215332   -2.905410704    53.0323   2   7   0.4909   0.3298   0.9167   0.1673   0.4072  -0.2777  -0.00    0.0
2022/05/05 15:46:26.000   35.154212369   -2.905404643    53.4840   2   7   0.4868   0.3365   0.8722   0.1277   0.4040  -0.3028  -0.00    0.0
2022/05/05 15:46:27.000   35.154211206   -2.905403110    52.7401   2   7   0.5125   0.3527   0.9689   0.2042   0.4485  -0.2237  -0.00    0.0
2022/05/05 15:46:28.000   35.154208137   -2.905392715    53.4507   2   7   0.4986   0.3931   0.9816   0.1915   0.5012  -0.2283  -0.00    0.0
2022/05/05 15:46:29.000   35.154209751   -2.905390923    54.0571   2   6   0.6038   0.3601   0.9955   0.2942   0.4624   0.2371  -0.00    0.0
2022/05/05 15:46:30.000   35.154205525   -2.905383871    53.8143   2   7   0.5065   0.2974   0.8094   0.1711   0.3235  -0.2725  -0.00    0.0
2022/05/05 15:46:31.000   35.154207722   -2.905382943    53.6254   2   7   0.6082   0.3376   0.9702   0.2722   0.4283   0.1396  -0.00    0.0
2022/05/05 15:46:32.000   35.154202936   -2.905379503    53.8134   2   7   0.5152   0.2927   0.8165   0.1638   0.3202  -0.2937  -0.00    0.0
2022/05/05 15:46:33.000   35.154203168   -2.905374857    53.9654   2   7   0.6198   0.3317   0.9765   0.2655   0.4227   0.0482  -0.00    0.0
2022/05/05 15:46:34.000   35.154198330   -2.905375633    53.6020   2   7   0.5249   0.2894   0.8261   0.1576   0.3190  -0.3132  -0.00    0.0
2022/05/05 15:46:35.000   35.154196449   -2.905369387    53.3871   2   7   0.6326   0.3262   0.9842   0.2584   0.4175  -0.1292  -0.00    0.0
2022/05/05 15:46:36.000   35.154189583   -2.905368321    53.4126   2   7   0.5355   0.2867   0.8374   0.1515   0.3189  -0.3325  -0.00    0.0
2022/05/05 15:46:37.000   35.154183887   -2.905367354    52.9764   2   7   0.6483   0.3214   0.9934   0.2523   0.4133  -0.1930  -0.00    0.0
2022/05/05 15:46:38.000   35.154183152   -2.905356271    53.8635   2   7   0.5467   0.2847   0.8513   0.1453   0.3205  -0.3514  -0.00    0.0
2022/05/05 15:46:39.000   35.154185076   -2.905354189    54.1768   2   7   0.6583   0.3170   1.0115   0.2414   0.4129  -0.2439  -0.00    0.0
2022/05/05 15:46:40.000   35.154187512   -2.905352351    53.9446   2   7   0.5624   0.2834   0.8657   0.1423   0.3225  -0.3713  -0.00    0.0
2022/05/05 15:46:41.000   35.154183977   -2.905345941    53.4624   2   7   0.7307   0.3166   1.0021   0.2656   0.3994  -0.3073  -0.00    0.0
2022/05/05 15:46:42.000   35.154182077   -2.905345580    53.4419   2   7   0.5652   0.2826   0.9008   0.1264   0.3331  -0.3911  -0.00    0.0
2022/05/05 15:46:43.000   35.154182495   -2.905341339    53.4378   2   7   0.6574   0.3130   1.1318   0.1981   0.4426  -0.3508  -0.00    0.0
2022/05/05 15:46:44.000   35.154182030   -2.905334995    53.9530   2   6   0.8824   0.2931   0.9720   0.2650   0.2786  -0.6439  -0.00    0.0
2022/05/05 15:46:45.000   35.154187711   -2.905333472    53.7692   2   7   0.5979   0.3059   0.9535   0.2023   0.4148   0.1776  -0.00    0.0
2022/05/05 15:46:46.000   35.154180988   -2.905328981    54.0394   2   7   0.5124   0.2873   0.8462   0.1330   0.3581  -0.1783  -0.00    0.0
2022/05/05 15:46:47.000   35.154181526   -2.905326476    54.6827   2   7   0.6532   0.3306   1.0493   0.2685   0.4761   0.3626  -0.00    0.0
2022/05/05 15:46:48.000   35.154180498   -2.905326950    54.3556   2   6   0.5038   0.2921   0.8777   0.0797   0.3752  -0.2575  -0.00    0.0
2022/05/05 15:46:49.000   35.154183379   -2.905326178    54.0409   2   7   0.5493   0.3987   0.9888  -0.0970   0.4860  -0.2844  -0.00    0.0
2022/05/05 15:46:50.000   35.154174072   -2.905322621    53.7769   2   7   0.5441   0.3816   0.9021  -0.1219   0.4414  -0.2974  -0.00    0.0
2022/05/05 15:46:51.000   35.154176850   -2.905318276    53.2322   2   7   0.5834   0.4352   1.0685   0.0301   0.5484  -0.2153  -0.00    0.0
2022/05/05 15:46:52.000   35.154171515   -2.905316154    53.4841   2   7   0.5653   0.4281   0.9975   0.0437   0.5211  -0.2014  -0.00    0.0
2022/05/05 15:46:53.000   35.154171521   -2.905320397    53.0796   2   6   0.7222   0.5013   1.2076   0.2739   0.6583   0.3864  -0.00    0.0
2022/05/05 15:46:54.000   35.154168790   -2.905318637    52.7433   2   7   0.5605   0.3980   0.9066  -0.2023   0.4461  -0.3625  -0.00    0.0
2022/05/05 15:46:55.000   35.154167024   -2.905319912    52.2289   2   7   0.6143   0.3884   0.9672  -0.2096   0.4542  -0.3872  -0.00    0.0
2022/05/05 15:46:56.000   35.154163976   -2.905318439    52.1811   2   7   0.5920   0.3887   0.9116  -0.1959   0.4389  -0.3532  -0.00    0.0
2022/05/05 15:46:57.000   35.154158489   -2.905318317    51.9495   2   7   0.6574   0.3871   0.9907  -0.2051   0.4622  -0.3772  -0.00    0.0
2022/05/05 15:46:58.000   35.154159525   -2.905317575    51.5691   2   7   0.6336   0.3757   0.9007  -0.1992   0.4197  -0.3567  -0.00    0.0
2022/05/05 15:46:59.000   35.154154460   -2.905315066    51.3646   2   7   0.7189   0.3974   1.0520  -0.1766   0.4970  -0.3219  -0.00    0.0
2022/05/05 15:47:00.000   35.154148367   -2.905312566    52.5462   2   7   0.6963   0.3915   0.9762  -0.1372   0.4677  -0.2429  -0.00    0.0
2022/05/05 15:47:01.000   35.154139191   -2.905297083    54.2492   2   6   0.9077   0.5838   1.2618  -0.2271   0.7225  -0.1555  -0.00    0.0
2022/05/05 15:47:02.000   35.154131567   -2.905301280    53.6121   2   7   0.7444   0.4476   0.9084  -0.4001   0.4561  -0.5290  -0.00    0.0
2022/05/05 15:47:03.000   35.154126527   -2.905307960    52.0938   2   6   1.0172   0.4458   0.9083  -0.5505   0.4307  -0.6997  -0.00    0.0
2022/05/05 15:47:04.000   35.154123268   -2.905302425    53.1930   2   6   0.7206   0.4274   0.9272  -0.3672   0.4511  -0.5283  -0.00    0.0
2022/05/05 15:47:05.000   35.154120073   -2.905307775    51.4445   2   7   0.9467   0.3684   0.8181  -0.4571   0.2978  -0.6138  -0.00    0.0
2022/05/05 15:47:06.000   35.154120893   -2.905308527    51.3032   2   7   0.7027   0.3175   0.7448  -0.3047   0.2166  -0.4736  -0.00    0.0
2022/05/05 15:47:07.000   35.154113672   -2.905304106    50.7559   2   7   0.9201   0.3466   0.8278  -0.4163   0.2812  -0.6014  -0.00    0.0
2022/05/05 15:47:08.000   35.154115931   -2.905305535    51.4187   2   7   0.6989   0.3053   0.7538  -0.2788   0.2072  -0.4687  -0.00    0.0
2022/05/05 15:47:09.000   35.154113480   -2.905301680    51.2051   2   7   0.9034   0.3288   0.8402  -0.3800   0.2675  -0.5927  -0.00    0.0
2022/05/05 15:47:10.000   35.154110840   -2.905300469    51.6541   2   7   0.7013   0.2943   0.7634  -0.2529   0.1973  -0.4634  -0.00    0.0
2022/05/05 15:47:11.000   35.154112311   -2.905300962    51.1410   2   7   0.8958   0.3142   0.8541  -0.3468   0.2560  -0.5858  -0.00    0.0
2022/05/05 15:47:12.000   35.154107204   -2.905299530    51.5993   2   7   0.7130   0.2838   0.7729  -0.2261   0.1853  -0.4564  -0.00    0.0
2022/05/05 15:47:13.000   35.154110341   -2.905299065    51.3629   2   7   0.9007   0.3014   0.8691  -0.3138   0.2447  -0.5782  -0.00    0.0
2022/05/05 15:47:14.000   35.154107880   -2.905299215    51.6830   2   7   0.7481   0.2751   0.7862  -0.1904   0.1769  -0.4377  -0.00    0.0
2022/05/05 15:47:15.000   35.154103574   -2.905295693    51.3612   2   6   1.1732   0.5102   1.0042  -0.4761   0.4331  -0.4645  -0.00    0.0
2022/05/05 15:47:16.000   35.154106448   -2.905296647    51.6105   2   7   0.7261   0.3416   0.7607  -0.3476  -0.0340  -0.5208  -0.00    0.0
2022/05/05 15:47:17.000   35.154106474   -2.905295940    51.4391   2   7   0.9818   0.3873   0.8606  -0.4882   0.1992  -0.6820  -0.00    0.0
2022/05/05 15:47:18.000   35.154107005   -2.905297315    50.9433   2   7   0.7155   0.3231   0.7753  -0.3166  -0.0541  -0.5327  -0.00    0.0
2022/05/05 15:47:19.000   35.154103143   -2.905293343    50.5495   2   7   0.9499   0.3596   0.8804  -0.4404   0.1750  -0.6883  -0.00    0.0
2022/05/05 15:47:20.000   35.154105417   -2.905292822    50.6010   2   7   0.7106   0.3088   0.7915  -0.2894  -0.0704  -0.5462  -0.00    0.0
2022/05/05 15:47:21.000   35.154110528   -2.905293652    50.4143   2   7   0.9316   0.3379   0.9032  -0.4006   0.1526  -0.7007  -0.00    0.0
2022/05/05 15:47:22.000   35.154112502   -2.905294930    50.7704   2   7   0.7102   0.2959   0.8099  -0.2624  -0.0825  -0.5630  -0.00    0.0
2022/05/05 15:47:23.000   35.154109424   -2.905295854    50.7498   2   7   0.9238   0.3203   0.9301  -0.3656   0.1314  -0.7198  -0.00    0.0
2022/05/05 15:47:24.000   35.154117350   -2.905297574    50.7563   2   7   0.7119   0.2827   0.8310  -0.2305  -0.0942  -0.5834  -0.00    0.0
2022/05/05 15:47:25.000   35.154120435   -2.905299212    50.6426   2   7   0.9239   0.3041   0.9609  -0.3296   0.0991  -0.7428  -0.00    0.0
2022/05/05 15:47:26.000   35.154112809   -2.905296988    50.7057   2   7   0.7269   0.2730   0.8570  -0.2044  -0.0934  -0.6146  -0.00    0.0
2022/05/05 15:47:27.000   35.154113343   -2.905297546    50.9578   2   7   0.9549   0.2984   1.0064  -0.3157   0.1012  -0.7927  -0.00    0.0
2022/05/05 15:47:28.000   35.154111166   -2.905300834    51.6974   2   6   0.6300   0.2227   0.8945   0.1657  -0.1824  -0.6021  -0.00    0.0
2022/05/05 15:47:29.000   35.154111575   -2.905304050    51.4923   2   7   0.7450   0.2613   1.0766   0.2464  -0.2775  -0.7815  -0.00    0.0
2022/05/05 15:47:30.000   35.154118011   -2.905304837    50.5000   2   7   0.6869   0.2690   1.0204   0.2414  -0.2980  -0.7113  -0.00    0.0
2022/05/05 15:47:31.000   35.154121971   -2.905302610    49.6754   2   6   1.0421   0.2627   1.2020   0.2919  -0.2896  -1.0126  -0.00    0.0
2022/05/05 15:47:32.000   35.154121374   -2.905302552    49.4446   2   6   0.6216   0.2641   0.9013   0.1799  -0.2295  -0.5906  -0.00    0.0
2022/05/05 15:47:33.000   35.154123669   -2.905300782    49.0689   2   7   0.6926   0.2573   0.9736   0.1957  -0.1953  -0.6860  -0.00    0.0
2022/05/05 15:47:34.000   35.154124579   -2.905300149    49.2061   2   7   0.6775   0.2780   1.0190   0.2364  -0.2972  -0.6938  -0.00    0.0
2022/05/05 15:47:35.000   35.154113592   -2.905305660    50.5608   2   6   0.8630   0.2536   0.9849   0.1944  -0.1368  -0.7865  -0.00    0.0
2022/05/05 15:47:36.000   35.154114859   -2.905303865    50.1400   2   7   0.6139   0.2481   0.8018   0.1341  -0.0518  -0.5444  -0.00    0.0
2022/05/05 15:47:37.000   35.154110720   -2.905300043    49.7980   2   7   0.8042   0.2480   0.9591   0.1310  -0.0659  -0.7336  -0.00    0.0
2022/05/05 15:47:38.000   35.154102681   -2.905305200    50.4450   2   7   0.6056   0.2469   0.8078   0.1154  -0.0321  -0.5378  -0.00    0.0
2022/05/05 15:47:39.000   35.154091648   -2.905307076    51.0516   2   7   0.7895   0.2476   0.9632   0.0952   0.0089  -0.7220  -0.00    0.0
2022/05/05 15:47:40.000   35.154092311   -2.905312022    51.1032   2   7   0.5997   0.2466   0.8158   0.0960   0.0153  -0.5334  -0.00    0.0
2022/05/05 15:47:41.000   35.154091046   -2.905319293    50.9485   2   7   0.7759   0.2478   0.9686   0.0390   0.0629  -0.7111  -0.00    0.0
2022/05/05 15:47:42.000   35.154088035   -2.905324395    51.2904   2   7   0.5949   0.2468   0.8252   0.0733   0.0347  -0.5301  -0.00    0.0
2022/05/05 15:47:43.000   35.154088763   -2.905329951    51.5266   2   7   0.7645   0.2486   0.9765  -0.0733   0.0843  -0.7021  -0.00    0.0
2022/05/05 15:47:44.000   35.154088539   -2.905329880    50.9777   2   7   0.5913   0.2473   0.8363   0.0424   0.0428  -0.5282  -0.00    0.0
2022/05/05 15:47:45.000   35.154091518   -2.905330803    50.8552   2   7   0.7551   0.2499   0.9868  -0.1084   0.0978  -0.6948  -0.00    0.0
2022/05/05 15:47:46.000   35.154089557   -2.905333181    50.7386   2   7   0.5894   0.2481   0.8493  -0.0390   0.0458  -0.5278  -0.00    0.0
2022/05/05 15:47:47.000   35.154085605   -2.905340606    50.3940   2   7   0.7477   0.2517   0.9997  -0.1331   0.1066  -0.6892  -0.00    0.0
2022/05/05 15:47:48.000   35.154082695   -2.905342084    50.2374   2   7   0.5895   0.2492   0.8644  -0.0681   0.0447  -0.5293  -0.00    0.0
2022/05/05 15:47:49.000   35.154083987   -2.905342800    50.0675   2   7   0.7424   0.2538   1.0157  -0.1529   0.1116  -0.6854  -0.00    0.0
2022/05/05 15:47:50.000   35.154082671   -2.905342370    50.0968   2   7   0.5921   0.2506   0.8820  -0.0872   0.0399  -0.5333  -0.00    0.0
2022/05/05 15:47:51.000   35.154082484   -2.905344385    50.2814   2   7   0.7393   0.2564   1.0353  -0.1697   0.1133  -0.6840  -0.00    0.0
2022/05/05 15:47:52.000   35.154085253   -2.905345842    50.0209   2   7   0.5981   0.2521   0.9026  -0.1028   0.0304  -0.5404  -0.00    0.0
2022/05/05 15:47:53.000   35.154081742   -2.905346105    49.6469   2   7   0.7388   0.2594   1.0590  -0.1844   0.1110  -0.6849  -0.00    0.0
2022/05/05 15:47:54.000   35.154083506   -2.905348763    49.2308   2   7   0.6087   0.2538   0.9267  -0.1172   0.0128  -0.5518  -0.00    0.0
2022/05/05 15:47:55.000   35.154082470   -2.905344827    49.3366   2   7   0.7444   0.2627   1.0909  -0.1984   0.1075  -0.6940  -0.00    0.0
2022/05/05 15:47:56.000   35.154082680   -2.905344840    49.3789   2   7   0.6240   0.2557   0.9544  -0.1315  -0.0272  -0.5668  -0.00    0.0
2022/05/05 15:47:57.000   35.154078948   -2.905343357    49.3126   2   7   0.7459   0.2676   1.1211  -0.2117   0.0702  -0.6876  -0.00    0.0
2022/05/05 15:47:58.000   35.154086908   -2.905344603    48.7147   2   7   0.6567   0.2582   0.9915  -0.1537   0.0313  -0.5987  -0.00    0.0
2022/05/05 15:47:59.000   35.154088006   -2.905342294    48.0306   2   7   0.8231   0.2779   1.1909  -0.2609   0.1301  -0.7619  -0.00    0.0
2022/05/05 15:48:00.000   35.154085693   -2.905342181    47.9841   2   6   0.6809   0.2653   1.0589  -0.1591  -0.1291  -0.6203  -0.00    0.0
2022/05/05 15:48:01.000   35.154091603   -2.905339171    47.8480   2   6   1.1979   0.4044   1.3142   0.4211  -0.3284  -1.0107  -0.00    0.0
2022/05/05 15:48:02.000   35.154085426   -2.905346272    48.0180   2   6   0.8911   0.3914   1.1101   0.3691  -0.3100  -0.7239  -0.00    0.0
2022/05/05 15:48:03.000   35.154086642   -2.905351856    48.5529   2   6   1.2134   0.4158   1.2566   0.4239  -0.2694  -0.9435  -0.00    0.0
2022/05/05 15:48:04.000   35.154074644   -2.905363364    49.4217   2   7   0.8308   0.3965   0.9456   0.3384  -0.2215  -0.4966  -0.00    0.0
2022/05/05 15:48:05.000   35.154064407   -2.905367759    49.8437   2   7   0.9408   0.3876   0.9967   0.3157  -0.1817  -0.4828  -0.00    0.0
2022/05/05 15:48:06.000   35.154069609   -2.905374912    49.8210   2   6   1.0301   0.3977   0.9516   0.3807  -0.1997  -0.4607  -0.00    0.0
2022/05/05 15:48:07.000   35.154062232   -2.905380010    49.8752   2   7   0.8992   0.3796   1.0178   0.2278  -0.1927  -0.4886  -0.00    0.0
2022/05/05 15:48:08.000   35.154061617   -2.905385634    49.5693   2   6   0.9871   0.3827   0.9602   0.2930  -0.1970  -0.4528  -0.00    0.0
2022/05/05 15:48:09.000   35.154075621   -2.905390681    50.3414   2   7   0.8527   0.3795   1.0430   0.0995  -0.2085  -0.4994  -0.00    0.0
2022/05/05 15:48:10.000   35.154078123   -2.905396239    50.6962   2   7   0.8641   0.3776   0.9707   0.1815  -0.1991  -0.4578  -0.00    0.0
2022/05/05 15:48:11.000   35.154079761   -2.905399386    50.2188   2   7   0.8627   0.3857   1.0742  -0.1887  -0.2298  -0.5132  -0.00    0.0
2022/05/05 15:48:12.000   35.154078950   -2.905402286    50.2378   2   7   0.8492   0.3805   0.9903  -0.1017  -0.2076  -0.4618  -0.00    0.0
2022/05/05 15:48:13.000   35.154072015   -2.905405831    50.8953   2   7   0.9088   0.4034   1.1083  -0.3087  -0.2576  -0.5350  -0.00    0.0
2022/05/05 15:48:14.000   35.154070140   -2.905412336    50.4933   2   7   0.8521   0.3981   0.9946  -0.2448  -0.2003  -0.4663  -0.00    0.0
2022/05/05 15:48:15.000   35.154083441   -2.905416736    50.0467   2   6   1.1898   0.4542   1.1775  -0.5151  -0.3268  -0.5375  -0.00    0.0
2022/05/05 15:48:16.000   35.154082800   -2.905423702    49.7553   2   6   1.0730   0.4249   1.0916  -0.4165  -0.2605  -0.4744  -0.00    0.0
2022/05/05 15:48:17.000   35.154077788   -2.905416627    50.1128   2   5   1.2484   0.7712   1.4272  -0.5173  -0.7355  -0.9170  -0.00    0.0
2022/05/05 15:48:18.000   35.154062738   -2.905436034    56.2764   2   5   1.1521   0.6290   2.2263   0.4383  -0.9432  -1.3939  -0.00    0.0
2022/05/05 15:48:19.000   35.154084255   -2.905433179    51.8206   2   7   1.1617   0.6491   1.2642  -0.5274  -0.5158  -0.8218  -0.00    0.0
2022/05/05 15:48:20.000   35.154092376   -2.905431159    50.9063   2   7   0.8144   0.4827   0.9705  -0.3010  -0.3379  -0.5834  -0.00    0.0
2022/05/05 15:48:21.000   35.154102487   -2.905420783    50.4853   2   7   1.1287   0.6434   1.0611  -0.5473  -0.4358  -0.6803  -0.00    0.0
2022/05/05 15:48:22.000   35.154105384   -2.905415423    51.0289   2   6   0.8180   0.4907   0.9245  -0.2947  -0.3312  -0.5424  -0.00    0.0
2022/05/05 15:48:23.000   35.154104779   -2.905415399    52.5579   2   7   1.1357   0.6502   1.0811  -0.5244  -0.4459  -0.6912  -0.00    0.0
2022/05/05 15:48:24.000   35.154116787   -2.905418391    51.7165   2   6   0.9060   0.4875   0.9084  -0.3080  -0.3074  -0.5577  -0.00    0.0
2022/05/05 15:48:25.000   35.154123790   -2.905420897    51.5364   2   6   1.4467   0.7209   1.0658  -0.7299  -0.3964  -0.7481  -0.00    0.0
2022/05/05 15:48:26.000   35.154131842   -2.905414607    50.5962   2   6   0.7129   0.3552   0.8986   0.3584  -0.3259  -0.5418  -0.00    0.0
2022/05/05 15:48:27.000   35.154147254   -2.905418341    49.7429   2   7   0.7793   0.4281   1.0531   0.4375  -0.4683  -0.6470  -0.00    0.0
2022/05/05 15:48:28.000   35.154150802   -2.905424317    48.8463   2   7   0.7253   0.3659   0.8940   0.3748  -0.3235  -0.5483  -0.00    0.0
2022/05/05 15:48:29.000   35.154160208   -2.905424615    48.0083   2   7   0.8580   0.4411   1.0492   0.4686  -0.4639  -0.6519  -0.00    0.0
2022/05/05 15:48:30.000   35.154155370   -2.905429595    48.7173   2   7   0.7960   0.3892   0.8998   0.4244  -0.3380  -0.5858  -0.00    0.0
2022/05/05 15:48:31.000   35.154148638   -2.905435599    49.7635   2   7   1.0195   0.4909   1.0808   0.5779  -0.5110  -0.7559  -0.00    0.0
2022/05/05 15:48:32.000   35.154150843   -2.905435467    49.4371   2   6   1.0396   0.4348   0.9207   0.5391  -0.3767  -0.6577  -0.00    0.0
2022/05/05 15:48:33.000   35.154152792   -2.905438843    48.6164   2   6   1.1230   0.5638   1.1562   0.6936  -0.5969  -0.8888  -0.00    0.0
2022/05/05 15:48:34.000   35.154162194   -2.905443975    49.3223   2   6   1.1076   0.4600   0.9166   0.5849  -0.3816  -0.7007  -0.00    0.0
2022/05/05 15:48:35.000   35.154138534   -2.905458175    50.7933   2   7   0.6072   0.4638   1.0200   0.4252  -0.3972  -0.5193  -0.00    0.0
2022/05/05 15:48:36.000   35.154140346   -2.905457214    50.7599   2   7   0.5533   0.4080   0.8453   0.3591  -0.2258  -0.3907  -0.00    0.0
2022/05/05 15:48:37.000   35.154134705   -2.905458819    50.8158   2   7   0.6437   0.4914   1.0165   0.4590  -0.3785  -0.5039  -0.00    0.0
2022/05/05 15:48:38.000   35.154140321   -2.905459637    50.0716   2   7   0.5885   0.4382   0.8396   0.3957  -0.1992  -0.3745  -0.00    0.0
2022/05/05 15:48:39.000   35.154148867   -2.905465645    49.3814   2   7   0.6993   0.5346   1.0138   0.5129  -0.3516  -0.4817  -0.00    0.0
2022/05/05 15:48:40.000   35.154148534   -2.905468688    49.3740   2   7   0.6486   0.4902   0.8355   0.4600  -0.1655  -0.3565  -0.00    0.0
2022/05/05 15:48:41.000   35.154153479   -2.905474762    49.3440   2   6   0.9057   0.6981   1.0297   0.7176  -0.2134  -0.3646  -0.00    0.0
2022/05/05 15:48:42.000   35.154156938   -2.905482517    49.3068   2   7   0.6519   0.4915   0.8313   0.4567  -0.1595  -0.3567  -0.00    0.0
2022/05/05 15:48:43.000   35.154160249   -2.905481354    49.7849   2   7   0.7214   0.5319   1.0083   0.5111  -0.3371  -0.4739  -0.00    0.0
2022/05/05 15:48:44.000   35.154162335   -2.905490128    50.0621   2   7   0.6046   0.4391   0.8269   0.3854  -0.1769  -0.3713  -0.00    0.0
2022/05/05 15:48:45.000   35.154163032   -2.905496885    50.1876   2   7   0.6792   0.4875   1.0038   0.4491  -0.3566  -0.4949  -0.00    0.0
2022/05/05 15:48:46.000   35.154168943   -2.905498996    50.1479   2   7   0.5807   0.4092   0.8237   0.3381  -0.1929  -0.3850  -0.00    0.0
2022/05/05 15:48:47.000   35.154167708   -2.905502009    50.3813   2   7   0.6577   0.4611   1.0002   0.4071  -0.3714  -0.5123  -0.00    0.0
2022/05/05 15:48:48.000   35.154171540   -2.905506257    49.9645   2   7   0.5693   0.3905   0.8214   0.3026  -0.2090  -0.3996  -0.00    0.0
2022/05/05 15:48:49.000   35.154172656   -2.905512520    49.4400   2   7   0.6468   0.4440   0.9970   0.3740  -0.3810  -0.5257  -0.00    0.0
2022/05/05 15:48:50.000   35.154167384   -2.905521552    50.5037   2   6   0.5828   0.3900   0.8251   0.2964  -0.2441  -0.4302  -0.00    0.0
2022/05/05 15:48:51.000   35.154163587   -2.905526846    51.5522   2   6   0.6781   0.4589   1.0186   0.3915  -0.4317  -0.5800  -0.00    0.0
2022/05/05 15:48:52.000   35.154169615   -2.905530791    50.3853   2   6   0.5816   0.3818   0.8223   0.2694  -0.2540  -0.4400  -0.00    0.0
2022/05/05 15:48:53.000   35.154177396   -2.905530210    49.2942   2   7   0.6495   0.4329   0.9881   0.3321  -0.4030  -0.5481  -0.00    0.0
2022/05/05 15:48:54.000   35.154173258   -2.905535987    50.0857   2   7   0.5708   0.3698   0.8101   0.2228  -0.2432  -0.4303  -0.00    0.0
2022/05/05 15:48:55.000   35.154167729   -2.905541925    50.9222   2   7   0.6544   0.4283   0.9843   0.3047  -0.4067  -0.5556  -0.00    0.0
2022/05/05 15:48:56.000   35.154169228   -2.905547196    51.0848   2   7   0.5749   0.3658   0.8045   0.1841  -0.2441  -0.4337  -0.00    0.0
2022/05/05 15:48:57.000   35.154167235   -2.905554745    51.4994   2   7   0.6630   0.4260   0.9795   0.2729  -0.4079  -0.5607  -0.00    0.0
2022/05/05 15:48:58.000   35.154168714   -2.905559596    51.7257   2   7   0.5840   0.3652   0.7994   0.1352  -0.2455  -0.4375  -0.00    0.0
2022/05/05 15:48:59.000   35.154170709   -2.905564778    52.3674   2   7   0.6778   0.4275   0.9754   0.2352  -0.4093  -0.5665  -0.00    0.0
2022/05/05 15:49:00.000   35.154168479   -2.905565306    52.0692   2   7   0.5985   0.3681   0.7949   0.0404  -0.2473  -0.4417  -0.00    0.0
2022/05/05 15:49:01.000   35.154168039   -2.905564490    51.9950   2   7   0.6994   0.4328   0.9716   0.1820  -0.4105  -0.5724  -0.00    0.0
2022/05/05 15:49:02.000   35.154170782   -2.905571819    52.0238   2   7   0.6191   0.3748   0.7907  -0.1330  -0.2495  -0.4458  -0.00    0.0
2022/05/05 15:49:03.000   35.154171436   -2.905575975    52.0703   2   7   0.7303   0.4431   0.9682   0.0707  -0.4113  -0.5784  -0.00    0.0
2022/05/05 15:49:04.000   35.154171936   -2.905583694    52.1620   2   7   0.6475   0.3866   0.7868  -0.2049  -0.2521  -0.4494  -0.00    0.0
2022/05/05 15:49:05.000   35.154170821   -2.905589435    52.4238   2   7   0.7754   0.4607   0.9651  -0.1856  -0.4117  -0.5845  -0.00    0.0
2022/05/05 15:49:06.000   35.154170767   -2.905592660    51.9661   2   7   0.6865   0.4061   0.7830  -0.2744  -0.2558  -0.4515  -0.00    0.0
2022/05/05 15:49:07.000   35.154169913   -2.905598031    51.9185   2   7   0.8428   0.4926   0.9620  -0.3123  -0.4125  -0.5894  -0.00    0.0
2022/05/05 15:49:08.000   35.154171557   -2.905604147    51.9628   2   7   0.7574   0.4432   0.7797  -0.3670  -0.2612  -0.4529  -0.00    0.0
2022/05/05 15:49:09.000   35.154177621   -2.905613588    51.9936   2   6   1.3582   0.6942   0.9635  -0.7860  -0.3644  -0.6643  -0.00    0.0
2022/05/05 15:49:10.000   35.154173279   -2.905615854    52.0677   2   7   0.5609   0.3364   0.7769   0.0944  -0.2718  -0.4473  -0.00    0.0
2022/05/05 15:49:11.000   35.154172975   -2.905620214    52.0999   2   7   0.6223   0.3930   0.9568   0.2538  -0.4285  -0.5797  -0.00    0.0
2022/05/05 15:49:12.000   35.154174025   -2.905623578    51.8758   2   7   0.5574   0.3337   0.7745   0.0922  -0.2717  -0.4527  -0.00    0.0
2022/05/05 15:49:13.000   35.154172754   -2.905625806    51.6081   2   7   0.6184   0.3920   0.9548   0.2512  -0.4290  -0.5840  -0.00    0.0
2022/05/05 15:49:14.000   35.154174000   -2.905629011    51.6403   2   7   0.5550   0.3325   0.7721   0.0856  -0.2726  -0.4564  -0.00    0.0
2022/05/05 15:49:15.000   35.154180878   -2.905633635    51.9108   2   7   0.6139   0.3919   0.9529   0.2479  -0.4300  -0.5866  -0.00    0.0
2022/05/05 15:49:16.000   35.154184100   -2.905638683    52.2859   2   7   0.5520   0.3323   0.7698   0.0777  -0.2745  -0.4585  -0.00    0.0
2022/05/05 15:49:17.000   35.154187689   -2.905642236    52.4600   2   7   0.6093   0.3926   0.9509   0.2442  -0.4315  -0.5879  -0.00    0.0
2022/05/05 15:49:18.000   35.154189732   -2.905650564    52.1080   2   7   0.5486   0.3329   0.7674   0.0681  -0.2774  -0.4589  -0.00    0.0
2022/05/05 15:49:19.000   35.154195608   -2.905654841    51.8837   2   7   0.6047   0.3940   0.9488   0.2400  -0.4336  -0.5880  -0.00    0.0
2022/05/05 15:49:20.000   35.154193921   -2.905663613    52.3904   2   7   0.5443   0.3347   0.7650   0.0559  -0.2815  -0.4577  -0.00    0.0
2022/05/05 15:49:21.000   35.154192327   -2.905671459    52.7439   2   7   0.5991   0.3968   0.9467   0.2352  -0.4366  -0.5865  -0.00    0.0
2022/05/05 15:49:22.000   35.154193305   -2.905675464    52.4821   2   7   0.5423   0.3387   0.7628   0.0325  -0.2872  -0.4558  -0.00    0.0
2022/05/05 15:49:23.000   35.154196480   -2.905678574    52.3368   2   6   1.3499   0.6864   0.9500  -0.7872  -0.3794  -0.6741  -0.00    0.0
2022/05/05 15:49:24.000   35.154179522   -2.905672085    52.5106   2   7   0.6511   0.3715   0.7607  -0.2388  -0.2835  -0.4630  -0.00    0.0
2022/05/05 15:49:25.000   35.154179905   -2.905673430    52.5488   2   7   0.6994   0.4204   0.9435   0.0362  -0.4351  -0.5964  -0.00    0.0
2022/05/05 15:49:26.000   35.154179019   -2.905673542    52.6373   2   7   0.6413   0.3700   0.7585  -0.2321  -0.2851  -0.4637  -0.00    0.0
2022/05/05 15:49:27.000   35.154184263   -2.905677731    52.7386   2   7   0.6935   0.4232   0.9417  -0.0193  -0.4366  -0.5966  -0.00    0.0
2022/05/05 15:49:28.000   35.154186409   -2.905682083    52.7879   2   7   0.6415   0.3742   0.7566  -0.2381  -0.2889  -0.4631  -0.00    0.0
2022/05/05 15:49:29.000   35.154193113   -2.905695115    52.9240   2   6   1.3472   0.6841   0.9448  -0.7865  -0.3860  -0.6738  -0.00    0.0
2022/05/05 15:49:30.000   35.154192341   -2.905702193    52.8534   2   7   0.7627   0.4293   0.7548  -0.3791  -0.2927  -0.4619  -0.00    0.0
2022/05/05 15:49:31.000   35.154216747   -2.905720642    52.6113   2   6   1.3471   0.6833   0.9437  -0.7859  -0.3875  -0.6752  -0.00    0.0
2022/05/05 15:49:32.000   35.154206521   -2.905723850    52.9452   2   6   0.5011   0.3007   0.7535   0.1841  -0.3077  -0.4489  -0.00    0.0
2022/05/05 15:49:33.000   35.154204350   -2.905731286    53.3885   2   7   0.5673   0.3678   0.9370   0.2881  -0.4561  -0.5779  -0.00    0.0
2022/05/05 15:49:34.000   35.154202797   -2.905731780    53.0111   2   7   0.4970   0.3027   0.7521   0.1776  -0.3088  -0.4501  -0.00    0.0
2022/05/05 15:49:35.000   35.154205003   -2.905733115    52.5711   2   7   0.5754   0.3692   0.9356   0.2799  -0.4559  -0.5809  -0.00    0.0
2022/05/05 15:49:36.000   35.154205691   -2.905744780    53.0512   2   7   0.5034   0.3049   0.7504   0.1651  -0.3088  -0.4526  -0.00    0.0
2022/05/05 15:49:37.000   35.154203775   -2.905753694    53.3255   2   7   0.5839   0.3711   0.9344   0.2700  -0.4555  -0.5836  -0.00    0.0
2022/05/05 15:49:38.000   35.154204913   -2.905751255    53.2067   2   7   0.5116   0.3076   0.7489   0.1494  -0.3086  -0.4552  -0.00    0.0
2022/05/05 15:49:39.000   35.154206028   -2.905751969    53.2291   2   7   0.5943   0.3735   0.9332   0.2584  -0.4550  -0.5866  -0.00    0.0
2022/05/05 15:49:40.000   35.154202452   -2.905752129    53.1146   2   7   0.5218   0.3108   0.7474   0.1289  -0.3081  -0.4579  -0.00    0.0
2022/05/05 15:49:41.000   35.154203006   -2.905752464    52.9480   2   7   0.6066   0.3768   0.9322   0.2440  -0.4545  -0.5897  -0.00    0.0
2022/05/05 15:49:42.000   35.154202305   -2.905761661    52.8840   2   7   0.5338   0.3148   0.7461   0.0998  -0.3076  -0.4608  -0.00    0.0
2022/05/05 15:49:43.000   35.154201301   -2.905766713    52.8152   2   7   0.6212   0.3810   0.9313   0.2255  -0.4537  -0.5930  -0.00    0.0
2022/05/05 15:49:44.000   35.154204775   -2.905766364    52.6721   2   7   0.5481   0.3199   0.7448   0.0450  -0.3069  -0.4638  -0.00    0.0
2022/05/05 15:49:45.000   35.154202832   -2.905765284    52.7428   2   7   0.6388   0.3866   0.9304   0.2004  -0.4529  -0.5964  -0.00    0.0
2022/05/05 15:49:46.000   35.154205429   -2.905766949    52.6936   2   7   0.5652   0.3264   0.7437  -0.0878  -0.3063  -0.4667  -0.00    0.0
2022/05/05 15:49:47.000   35.154202612   -2.905773598    52.8954   2   7   0.6606   0.3940   0.9296   0.1628  -0.4518  -0.6001  -0.00    0.0
2022/05/05 15:49:48.000   35.154199880   -2.905780444    52.8357   2   7   0.5860   0.3349   0.7426  -0.1414  -0.3056  -0.4696  -0.00    0.0
2022/05/05 15:49:49.000   35.154194091   -2.905785829    52.6716   2   7   0.6883   0.4042   0.9289   0.0915  -0.4506  -0.6039  -0.00    0.0
2022/05/05 15:49:50.000   35.154193379   -2.905784956    52.7523   2   7   0.6118   0.3463   0.7416  -0.1899  -0.3051  -0.4723  -0.00    0.0
2022/05/05 15:49:51.000   35.154191329   -2.905785964    53.0913   2   7   0.7247   0.4186   0.9283  -0.1301  -0.4491  -0.6081  -0.00    0.0
2022/05/05 15:49:52.000   35.154195371   -2.905784331    52.5890   2   7   0.6451   0.3620   0.7406  -0.2410  -0.3049  -0.4745  -0.00    0.0
2022/05/05 15:49:53.000   35.154192146   -2.905788421    52.3637   2   7   0.7757   0.4399   0.9277  -0.2344  -0.4472  -0.6128  -0.00    0.0
2022/05/05 15:49:54.000   35.154191091   -2.905796598    52.4888   2   7   0.6895   0.3847   0.7397  -0.3001  -0.3058  -0.4756  -0.00    0.0
2022/05/05 15:49:55.000   35.154185327   -2.905799320    52.8001   2   7   0.8512   0.4754   0.9271  -0.3444  -0.4459  -0.6164  -0.00    0.0
2022/05/05 15:49:56.000   35.154187932   -2.905805182    52.4628   2   7   0.7651   0.4241   0.7395  -0.3851  -0.3085  -0.4764  -0.00    0.0
2022/05/05 15:49:57.000   35.154196572   -2.905820636    52.1513   2   6   1.3606   0.6796   0.9324  -0.7943  -0.3976  -0.6916  -0.00    0.0
2022/05/05 15:49:58.000   35.154190656   -2.905818954    52.3336   2   6   0.6603   0.3517   0.7405  -0.2310  -0.3030  -0.4889  -0.00    0.0
2022/05/05 15:49:59.000   35.154189124   -2.905820070    52.3420   2   7   0.7341   0.4197   0.9273  -0.1455  -0.4517  -0.6140  -0.00    0.0
2022/05/05 15:50:00.000   35.154191021   -2.905819868    52.4755   2   7   0.6605   0.3627   0.7395  -0.2508  -0.3075  -0.4830  -0.00    0.0
2022/05/05 15:50:01.000   35.154190018   -2.905822638    52.5643   2   7   0.7894   0.4422   0.9268  -0.2484  -0.4492  -0.6197  -0.00    0.0
2022/05/05 15:50:02.000   35.154189842   -2.905827904    52.2202   2   7   0.7039   0.3866   0.7389  -0.3097  -0.3087  -0.4833  -0.00    0.0
2022/05/05 15:50:03.000   35.154181297   -2.905833120    51.9775   2   7   0.8703   0.4803   0.9267  -0.3621  -0.4473  -0.6239  -0.00    0.0
2022/05/05 15:50:04.000   35.154181579   -2.905836545    52.0090   2   7   0.7794   0.4265   0.7394  -0.3941  -0.3116  -0.4840  -0.00    0.0
2022/05/05 15:50:05.000   35.154198406   -2.905846525    51.9904   2   6   1.3680   0.6790   0.9326  -0.7965  -0.3999  -0.6981  -0.00    0.0
2022/05/05 15:50:06.000   35.154184904   -2.905842233    52.4143   2   7   0.7831   0.4264   0.7403  -0.3954  -0.3117  -0.4869  -0.00    0.0
2022/05/05 15:50:07.000   35.154184995   -2.905849701    52.2942   2   7   0.8638   0.4831   0.9278  -0.3609  -0.4501  -0.6251  -0.00    0.0
2022/05/05 15:50:08.000   35.154184183   -2.905857123    52.4910   2   6   0.7109   0.3721   0.7436  -0.2890  -0.3046  -0.5041  -0.00    0.0
2022/05/05 15:50:09.000   35.154181127   -2.905855583    52.7029   2   7   0.8890   0.4838   0.9300  -0.3745  -0.4479  -0.6337  -0.00    0.0
2022/05/05 15:50:10.000   35.154181482   -2.905851796    51.9584   2   7   0.7980   0.4266   0.7464  -0.3973  -0.3145  -0.5002  -0.00    0.0
2022/05/05 15:50:11.000   35.154203951   -2.905866773    51.0379   2   6   1.3740   0.6775   0.9370  -0.7956  -0.4023  -0.7070  -0.00    0.0
2022/05/05 15:50:12.000   35.154198824   -2.905866643    51.6447   2   5   1.5079   0.6264   0.7997   0.5559  -0.4499  -0.7555  -0.00    0.0
2022/05/05 15:50:13.000   35.154197602   -2.905868597    51.6804   2   5   1.9848   0.7480   1.0832  -0.4088  -0.5781  -1.1023  -0.00    0.0
2022/05/05 15:50:14.000   35.154174037   -2.905875654    52.2582   2   6   1.1796   0.6306   0.7983   0.4955  -0.4245  -0.6460  -0.00    0.0
2022/05/05 15:50:15.000   35.154188306   -2.905890557    52.3827   2   5   1.9086   0.7714   1.0605  -0.4218  -0.5479  -1.0319  -0.00    0.0
2022/05/05 15:50:16.000   35.154212591   -2.905885879    51.9656   2   5   0.7993   0.5900   0.7871   0.6453  -0.4451  -0.5467  -0.00    0.0
2022/05/05 15:50:17.000   35.154204247   -2.905896578    51.5886   2   6   0.8960   0.6935   1.0210   0.7513  -0.6580  -0.7619  -0.00    0.0
2022/05/05 15:50:18.000   35.154204404   -2.905903777    51.8749   2   7   0.6235   0.4606   0.7542   0.4822  -0.3953  -0.4890  -0.00    0.0
2022/05/05 15:50:19.000   35.154200697   -2.905909154    52.0883   2   7   0.6684   0.5123   0.8191   0.5334  -0.4491  -0.5377  -0.00    0.0
2022/05/05 15:50:20.000   35.154199778   -2.905911007    52.0890   2   7   0.5678   0.4201   0.7247   0.4279  -0.3465  -0.4435  -0.00    0.0
2022/05/05 15:50:21.000   35.154202714   -2.905920364    52.0097   2   7   0.5986   0.4501   0.7814   0.4589  -0.3927  -0.4820  -0.00    0.0
2022/05/05 15:50:22.000   35.154204579   -2.905925589    52.0956   2   7   0.5283   0.3876   0.7036   0.3850  -0.3129  -0.4141  -0.00    0.0
2022/05/05 15:50:23.000   35.154205213   -2.905927740    52.1055   2   7   0.5533   0.4097   0.7532   0.4083  -0.3516  -0.4425  -0.00    0.0
2022/05/05 15:50:24.000   35.154206698   -2.905933120    51.8982   2   7   0.4993   0.3623   0.6861   0.3511  -0.2862  -0.3916  -0.00    0.0
2022/05/05 15:50:25.000   35.154206479   -2.905940911    51.7702   2   7   0.5210   0.3795   0.7307   0.3696  -0.3196  -0.4127  -0.00    0.0
2022/05/05 15:50:26.000   35.154201535   -2.905944104    51.9665   2   7   0.4775   0.3418   0.6710   0.3232  -0.2643  -0.3737  -0.00    0.0
2022/05/05 15:50:27.000   35.154204186   -2.905949497    52.1161   2   7   0.4967   0.3559   0.7119   0.3383  -0.2938  -0.3896  -0.00    0.0
2022/05/05 15:50:28.000   35.154203180   -2.905952208    52.0338   2   7   0.4606   0.3250   0.6579   0.2996  -0.2456  -0.3591  -0.00    0.0
2022/05/05 15:50:29.000   35.154201729   -2.905955314    51.8573   2   7   0.4779   0.3368   0.6957   0.3121  -0.2724  -0.3710  -0.00    0.0
2022/05/05 15:50:30.000   35.154202308   -2.905959776    51.8027   2   7   0.4472   0.3109   0.6462   0.2790  -0.2295  -0.3470  -0.00    0.0
2022/05/05 15:50:31.000   35.154202282   -2.905962394    51.6394   2   7   0.4631   0.3210   0.6814   0.2894  -0.2541  -0.3558  -0.00    0.0
2022/05/05 15:50:32.000   35.154200847   -2.905964236    51.3457   2   7   0.4364   0.2988   0.6357   0.2607  -0.2152  -0.3368  -0.00    0.0
2022/05/05 15:50:33.000   35.154202509   -2.905967202    51.2224   2   7   0.4513   0.3078   0.6687   0.2693  -0.2382  -0.3433  -0.00    0.0
2022/05/05 15:50:34.000   35.154201494   -2.905968615    51.1034   2   7   0.4277   0.2885   0.6261   0.2441  -0.2024  -0.3282  -0.00    0.0
2022/05/05 15:50:35.000   35.154200850   -2.905971167    51.4426   2   7   0.4419   0.2965   0.6571   0.2511  -0.2241  -0.3328  -0.00    0.0
2022/05/05 15:50:36.000   35.154201707   -2.905972773    51.1439   2   7   0.4207   0.2795   0.6172   0.2288  -0.1908  -0.3210  -0.00    0.0
2022/05/05 15:50:37.000   35.154202533   -2.905975589    51.1420   2   7   0.4344   0.2868   0.6466   0.2344  -0.2115  -0.3240  -0.00    0.0
2022/05/05 15:50:38.000   35.154201118   -2.905978201    51.2177   2   7   0.4152   0.2717   0.6091   0.2145  -0.1802  -0.3149  -0.00    0.0
2022/05/05 15:50:39.000   35.154201839   -2.905983385    51.3390   2   7   0.4286   0.2784   0.6369   0.2188  -0.2001  -0.3166  -0.00    0.0
2022/05/05 15:50:40.000   35.154204658   -2.905986077    51.3940   2   7   0.4108   0.2649   0.6016   0.2008  -0.1702  -0.3097  -0.00    0.0
2022/05/05 15:50:41.000   35.154205216   -2.905990776    51.3310   2   7   0.4241   0.2711   0.6280   0.2039  -0.1896  -0.3103  -0.00    0.0
2022/05/05 15:50:42.000   35.154205760   -2.905993197    51.4905   2   7   0.4076   0.2588   0.5946   0.1876  -0.1609  -0.3053  -0.00    0.0
2022/05/05 15:50:43.000   35.154206522   -2.905996111    51.7686   2   7   0.4208   0.2647   0.6197   0.1895  -0.1798  -0.3050  -0.00    0.0
2022/05/05 15:50:44.000   35.154205729   -2.906001255    51.5430   2   7   0.4052   0.2535   0.5881   0.1747  -0.1521  -0.3017  -0.00    0.0
2022/05/05 15:50:45.000   35.154206673   -2.906004671    51.7170   2   7   0.4186   0.2592   0.6120   0.1753  -0.1706  -0.3007  -0.00    0.0
2022/05/05 15:50:46.000   35.154206323   -2.906011515    51.4323   2   7   0.4038   0.2489   0.5820   0.1617  -0.1436  -0.2988  -0.00    0.0
2022/05/05 15:50:47.000   35.154205860   -2.906016195    51.6238   2   7   0.4174   0.2543   0.6048   0.1610  -0.1619  -0.2971  -0.00    0.0
2022/05/05 15:50:48.000   35.154205968   -2.906021475    51.5272   2   7   0.4031   0.2448   0.5764   0.1486  -0.1353  -0.2965  -0.00    0.0
2022/05/05 15:50:49.000   35.154207724   -2.906027089    51.5869   2   7   0.4171   0.2501   0.5981   0.1462  -0.1535  -0.2942  -0.00    0.0
2022/05/05 15:50:50.000   35.154208797   -2.906032923    51.4616   2   7   0.4032   0.2412   0.5711   0.1349  -0.1271  -0.2948  -0.00    0.0
2022/05/05 15:50:51.000   35.154210261   -2.906038483    51.4637   2   7   0.4177   0.2464   0.5918   0.1307  -0.1453  -0.2920  -0.00    0.0
2022/05/05 15:50:52.000   35.154212791   -2.906042438    51.3694   2   7   0.4041   0.2381   0.5662   0.1203  -0.1190  -0.2935  -0.00    0.0
2022/05/05 15:50:53.000   35.154216304   -2.906047358    51.2238   2   7   0.4191   0.2433   0.5860   0.1136  -0.1373  -0.2904  -0.00    0.0
2022/05/05 15:50:54.000   35.154217232   -2.906051957    51.1086   2   7   0.4057   0.2354   0.5617   0.1041  -0.1108  -0.2928  -0.00    0.0
2022/05/05 15:50:55.000   35.154219372   -2.906056533    50.9678   2   7   0.4214   0.2407   0.5805   0.0939  -0.1293  -0.2894  -0.00    0.0
2022/05/05 15:50:56.000   35.154217972   -2.906062988    51.0300   2   7   0.4080   0.2332   0.5575   0.0852  -0.1024  -0.2926  -0.00    0.0
2022/05/05 15:50:57.000   35.154219489   -2.906067873    50.9304   2   7   0.4246   0.2386   0.5754   0.0691  -0.1212  -0.2890  -0.00    0.0
2022/05/05 15:50:58.000   35.154218420   -2.906072125    51.0778   2   7   0.4111   0.2314   0.5537   0.0607  -0.0936  -0.2929  -0.00    0.0
2022/05/05 15:50:59.000   35.154218424   -2.906075219    51.0390   2   7   0.4287   0.2369   0.5707   0.0264  -0.1128  -0.2891  -0.00    0.0
2022/05/05 15:51:00.000   35.154220131   -2.906080104    51.0862   2   7   0.4150   0.2300   0.5502   0.0088  -0.0841  -0.2936  -0.00    0.0
2022/05/05 15:51:01.000   35.154221112   -2.906084122    51.0048   2   7   0.4338   0.2358   0.5663  -0.0589  -0.1040  -0.2899  -0.00    0.0
2022/05/05 15:51:02.000   35.154222840   -2.906089416    51.0141   2   7   0.4198   0.2290   0.5471  -0.0601  -0.0737  -0.2949  -0.00    0.0
2022/05/05 15:51:03.000   35.154221821   -2.906094927    50.9390   2   7   0.4399   0.2351   0.5623  -0.0883  -0.0945  -0.2912  -0.00    0.0
2022/05/05 15:51:04.000   35.154221328   -2.906100661    51.2375   2   7   0.4254   0.2285   0.5444  -0.0863  -0.0617  -0.2966  -0.00    0.0
2022/05/05 15:51:05.000   35.154222536   -2.906106335    51.1396   2   7   0.4472   0.2349   0.5586  -0.1111  -0.0840  -0.2932  -0.00    0.0
2022/05/05 15:51:06.000   35.154222754   -2.906113459    50.8995   2   7   0.4321   0.2284   0.5420  -0.1072  -0.0466  -0.2989  -0.00    0.0
2022/05/05 15:51:07.000   35.154220942   -2.906119370    50.9584   2   7   0.4558   0.2352   0.5553  -0.1312  -0.0718  -0.2959  -0.00    0.0
2022/05/05 15:51:08.000   35.154220459   -2.906124926    50.9555   2   7   0.4400   0.2287   0.5400  -0.1257  -0.0229  -0.3017  -0.00    0.0
2022/05/05 15:51:09.000   35.154220909   -2.906129680    50.8984   2   7   0.4659   0.2361   0.5524  -0.1500  -0.0565  -0.2993  -0.00    0.0
2022/05/05 15:51:10.000   35.154223873   -2.906137425    50.8344   2   7   0.4491   0.2296   0.5385  -0.1431   0.0341  -0.3051  -0.00    0.0
2022/05/05 15:51:11.000   35.154223185   -2.906143501    50.8835   2   7   0.4777   0.2378   0.5499  -0.1684  -0.0338  -0.3035  -0.00    0.0
2022/05/05 15:51:12.000   35.154225696   -2.906149839    51.0004   2   7   0.4599   0.2311   0.5374  -0.1602   0.0540  -0.3091  -0.00    0.0
2022/05/05 15:51:13.000   35.154225849   -2.906154071    50.9265   2   7   0.4917   0.2401   0.5478  -0.1870   0.0321  -0.3087  -0.00    0.0
2022/05/05 15:51:14.000   35.154226549   -2.906158859    50.8241   2   7   0.4726   0.2332   0.5368  -0.1775   0.0690  -0.3139  -0.00    0.0
2022/05/05 15:51:15.000   35.154226796   -2.906169128    50.2656   2   7   0.5083   0.2434   0.5462  -0.2064   0.0585  -0.3151  -0.00    0.0
2022/05/05 15:51:16.000   35.154225490   -2.906180348    50.1683   2   7   0.4876   0.2360   0.5367  -0.1956   0.0820  -0.3195  -0.00    0.0
2022/05/05 15:51:17.000   35.154226460   -2.906187202    50.1549   2   7   0.5283   0.2480   0.5452  -0.2273   0.0775  -0.3226  -0.00    0.0
2022/05/05 15:51:18.000   35.154227204   -2.906193708    49.6525   2   6   0.5882   0.2543   0.8867  -0.1413  -0.2389  -0.5650  -0.00    0.0
2022/05/05 15:51:19.000   35.154226178   -2.906202588    49.7382   2   7   0.5789   0.2508   0.6660  -0.2381  -0.0750  -0.4223  -0.00    0.0
2022/05/05 15:51:20.000   35.154227628   -2.906211416    49.6119   2   7   0.5620   0.2433   0.6422  -0.2230   0.0389  -0.4265  -0.00    0.0
2022/05/05 15:51:21.000   35.154226469   -2.906220995    49.9399   2   7   0.5961   0.2626   0.6517  -0.2636  -0.0790  -0.4064  -0.00    0.0
2022/05/05 15:51:22.000   35.154228499   -2.906227860    50.2936   2   7   0.5774   0.2536   0.6419  -0.2422  -0.0238  -0.4203  -0.00    0.0
2022/05/05 15:51:23.000   35.154229566   -2.906235203    50.5372   2   6   0.6392   0.2800   0.6523  -0.2976  -0.0569  -0.4215  -0.00    0.0
2022/05/05 15:51:24.000   35.154232753   -2.906238257    50.7700   2   7   0.7155   0.2728   0.9789  -0.2076  -0.2393  -0.6771  -0.00    0.0
2022/05/05 15:51:25.000   35.154229069   -2.906235679    50.5669   2   6   0.7568   0.3117   0.7485  -0.3605  -0.0522  -0.5316  -0.00    0.0
2022/05/05 15:51:26.000   35.154233878   -2.906244410    50.8147   2   7   0.7485   0.1750   1.0576   0.0693  -0.2158  -0.7680  -0.00    0.0
2022/05/05 15:51:27.000   35.154237424   -2.906249490    51.0059   2   6   0.7137   0.1692   0.8845  -0.1214  -0.1161  -0.6548  -0.00    0.0
2022/05/05 15:51:28.000   35.154203804   -2.906262341    52.4959   2   6   0.9808   0.2772   1.1483   0.3901  -0.2974  -0.6749  -0.00    0.0
2022/05/05 15:51:29.000   35.154214726   -2.906268044    52.2135   2   7   0.8330   0.2134   0.7819   0.2569   0.1825  -0.4206  -0.00    0.0
2022/05/05 15:51:30.000   35.154207780   -2.906276299    51.5241   2   7   0.8453   0.2155   0.8472   0.2703   0.2162  -0.3124  -0.00    0.0
2022/05/05 15:51:31.000   35.154223779   -2.906280518    50.7144   2   6   1.1442   0.2174   1.1385   0.3084   0.1436  -0.8493  -0.00    0.0
2022/05/05 15:51:32.000   35.154211716   -2.906288491    50.9383   2   7   0.8128   0.2144   1.0131   0.2503   0.2497  -0.3839  -0.00    0.0
2022/05/05 15:51:33.000   35.154224263   -2.906293006    50.8670   2   6   1.1119   0.2175   1.1862   0.2997   0.1842  -0.8216  -0.00    0.0
2022/05/05 15:51:34.000   35.154230904   -2.906295561    51.8822   2   6   0.8863   0.2171   1.0224   0.2761   0.2511  -0.3784  -0.00    0.0
